[{"station_number":"97504","station_name":"Stasiun Geofisika Sorong","idrefregency":"497","type":"mkg","region":"Region V","latitude":"-0.86000","longitude":"131.26000","elevation":"64","soil":null,"exposure":"2","land_use":"21","timezone":"+09:00","wmo_id":"97504","station_id":"177"},{"station_number":"96013","station_name":"Stasiun Geofisika Mata'ie","idrefregency":"6","type":"mkg","region":"Region I","latitude":"5.49600","longitude":"95.29600","elevation":"32","soil":"52.00000","exposure":"21","land_use":"28","timezone":"+07:00","wmo_id":"96013","station_id":"174"},{"station_number":"96585","station_name":"Stasiun Meteorologi Maritim Pontianak","idrefregency":"322","type":"mkg","region":"Region II","latitude":"-0.03000","longitude":"109.34000","elevation":"4","soil":"52.00000","exposure":"48","land_use":"28","timezone":"+07:00","wmo_id":"96585","station_id":"173"},{"station_number":"96807","station_name":"Stasiun Geofisika Banjarnegara","idrefregency":"187","type":"mkg","region":"Region II","latitude":"-7.33300","longitude":"109.70690","elevation":"608","soil":null,"exposure":null,"land_use":null,"timezone":"+07:00","wmo_id":"96807","station_id":"179"},{"station_number":"97692","station_name":"Stasiun Klimatologi Jayapura","idrefregency":"460","type":"mkg","region":"Region V","latitude":"-2.59231","longitude":"140.16792","elevation":"70","soil":null,"exposure":null,"land_use":null,"timezone":"+09:00","wmo_id":"97692","station_id":"175"},{"station_number":"97760","station_name":"Stasiun Meteorologi Utarom","idrefregency":"494","type":"mkg","region":"Region V","latitude":"-3.67000","longitude":"133.75000","elevation":"5","soil":null,"exposure":null,"land_use":null,"timezone":"+09:00","wmo_id":"97760","station_id":"176"},{"station_number":"96793","station_name":"Pos Meteorologi Penggung","idrefregency":"166","type":"mkg","region":"Region II","latitude":"-6.75530","longitude":"108.53904","elevation":"23","soil":"42.00000","exposure":"22","land_use":"23","timezone":"+07:00","wmo_id":"96793","station_id":"7744"},{"station_number":"96001","station_name":"Stasiun Meteorologi Cut Bau Maimun Saleh","idrefregency":"20","type":"mkg","region":"Region I","latitude":"5.87655","longitude":"95.33785","elevation":"126","soil":"53.00000","exposure":"21","land_use":"26","timezone":"+07:00","wmo_id":"96001","station_id":"1"},{"station_number":"96009","station_name":"Stasiun Meteorologi Malikussaleh","idrefregency":"8","type":"mkg","region":"Region I","latitude":"5.22869","longitude":"96.94749","elevation":"28","soil":"47.00000","exposure":"22","land_use":"28","timezone":"+07:00","wmo_id":"96009","station_id":"2"},{"station_number":"96011","station_name":"Stasiun Meteorologi Sultan Iskandar Muda","idrefregency":"6","type":"mkg","region":"Region I","latitude":"5.52244","longitude":"95.41700","elevation":"20","soil":null,"exposure":null,"land_use":null,"timezone":"+07:00","wmo_id":"96011","station_id":"3"},{"station_number":"96525","station_name":"Stasiun Meteorologi Tanjung Harapan","idrefregency":"503","type":"mkg","region":"Region III","latitude":"2.50000","longitude":"117.22000","elevation":"3","soil":null,"exposure":null,"land_use":null,"timezone":"+08:00","wmo_id":"96525","station_id":"178"},{"station_number":"96015","station_name":"Stasiun Meteorologi Tjut Nyak Dien Meulaboh","idrefregency":"15","type":"mkg","region":"Region I","latitude":"4.04928","longitude":"96.24796","elevation":"3","soil":"47.00000","exposure":"21","land_use":"21","timezone":"+07:00","wmo_id":"96015","station_id":"5"},{"station_number":"96017","station_name":"Stasiun Klimatologi Aceh Besar","idrefregency":"6","type":"mkg","region":"Region I","latitude":"5.40400","longitude":"95.46400","elevation":"40","soil":"50.00000","exposure":"22","land_use":"28","timezone":"+07:00","wmo_id":"96017","station_id":"6"},{"station_number":"96031","station_name":"Stasiun Klimatologi Deli Serdang","idrefregency":"30","type":"mkg","region":"Region I","latitude":"3.62114","longitude":"98.71485","elevation":"25","soil":"52.00000","exposure":"21","land_use":"23","timezone":"+07:00","wmo_id":"96031","station_id":"7"},{"station_number":"96033","station_name":"Stasiun Meteorologi Maritim Belawan","idrefregency":"49","type":"mkg","region":"Region I","latitude":"3.78824","longitude":"98.71492","elevation":"3","soil":null,"exposure":null,"land_use":null,"timezone":"+07:00","wmo_id":"96033","station_id":"8"},{"station_number":"96035","station_name":"Stasiun Meteorologi Kualanamu","idrefregency":"30","type":"mkg","region":"Region I","latitude":"3.64573","longitude":"98.88488","elevation":"23","soil":null,"exposure":"22","land_use":"27","timezone":"+07:00","wmo_id":"96035","station_id":"9"},{"station_number":"96037","station_name":"Stasiun Geofisika Tuntungan","idrefregency":"30","type":"mkg","region":"Region I","latitude":"3.50100","longitude":"98.56000","elevation":"86","soil":null,"exposure":null,"land_use":"23","timezone":"+07:00","wmo_id":"96037","station_id":"10"},{"station_number":"96039","station_name":"Stasiun Geofisika Tapaktuan Aceh Selatan","idrefregency":"1","type":"mkg","region":"Region I","latitude":"3.17333","longitude":"97.28637","elevation":"2","soil":null,"exposure":null,"land_use":null,"timezone":"+07:00","wmo_id":"96039","station_id":"11"},{"station_number":"96071","station_name":"Stasiun Meteorologi Aek Godang","idrefregency":"43","type":"mkg","region":"Region I","latitude":"1.55000","longitude":"99.45000","elevation":"281","soil":"44.00000","exposure":"22","land_use":"23","timezone":"+07:00","wmo_id":"96071","station_id":"12"},{"station_number":"96073","station_name":"Stasiun Meteorologi F.L Tobing","idrefregency":"24","type":"mkg","region":"Region I","latitude":"1.55000","longitude":"98.88000","elevation":"10","soil":null,"exposure":null,"land_use":null,"timezone":"+07:00","wmo_id":"96073","station_id":"13"},{"station_number":"96075","station_name":"Stasiun Meteorologi Binaka","idrefregency":"27","type":"mkg","region":"Region I","latitude":"1.16490","longitude":"97.70360","elevation":"7","soil":null,"exposure":null,"land_use":null,"timezone":"+07:00","wmo_id":"96075","station_id":"14"},{"station_number":"96077","station_name":"Stasiun Geofisika Gunung Sitoli","idrefregency":"27","type":"mkg","region":"Region I","latitude":"1.30000","longitude":"97.58000","elevation":"175","soil":null,"exposure":null,"land_use":null,"timezone":"+07:00","wmo_id":"96077","station_id":"15"},{"station_number":"96087","station_name":"Stasiun Meteorologi Hang Nadim","idrefregency":"150","type":"mkg","region":"Region I","latitude":"1.11667","longitude":"104.11667","elevation":"26","soil":null,"exposure":null,"land_use":null,"timezone":"+07:00","wmo_id":"96087","station_id":"16"},{"station_number":"96089","station_name":"Stasiun Meteorologi Raja Haji Abdullah Tanjung Balai Karimun","idrefregency":"146","type":"mkg","region":"Region I","latitude":"1.03000","longitude":"103.38000","elevation":"1","soil":"44.00000","exposure":"42","land_use":"26","timezone":"+07:00","wmo_id":"96089","station_id":"17"},{"station_number":"96091","station_name":"Stasiun Meteorologi Kijang","idrefregency":"151","type":"mkg","region":"Region I","latitude":"0.92270","longitude":"104.52890","elevation":"15","soil":"52.00000","exposure":"21","land_use":"26","timezone":"+07:00","wmo_id":"96091","station_id":"18"},{"station_number":"96109","station_name":"Stasiun Meteorologi Sultan Syarif Kasim II","idrefregency":"86","type":"mkg","region":"Region I","latitude":"0.45924","longitude":"101.44743","elevation":"39","soil":"43.00000","exposure":"22","land_use":"26","timezone":"+07:00","wmo_id":"96109","station_id":"19"},{"station_number":"96145","station_name":"Stasiun Meteorologi Tarempa","idrefregency":"149","type":"mkg","region":"Region I","latitude":"3.20000","longitude":"106.25000","elevation":"2","soil":"52.00000","exposure":"42","land_use":"25","timezone":"+07:00","wmo_id":"96145","station_id":"20"},{"station_number":"96147","station_name":"Stasiun Meteorologi Ranai","idrefregency":"147","type":"mkg","region":"Region I","latitude":"3.91206","longitude":"108.39000","elevation":"2","soil":null,"exposure":null,"land_use":"26","timezone":"+07:00","wmo_id":"96147","station_id":"21"},{"station_number":"96161","station_name":"Stasiun Metorologi Maritim Teluk Bayur","idrefregency":"69","type":"mkg","region":"Region I","latitude":"-0.99639","longitude":"100.37222","elevation":"2","soil":"47.00000","exposure":"21","land_use":"28","timezone":"+07:00","wmo_id":"96161","station_id":"22"},{"station_number":"96163","station_name":"Stasiun Meteorologi Minangkabau","idrefregency":"61","type":"mkg","region":"Region I","latitude":"-0.79355","longitude":"100.28917","elevation":"6","soil":null,"exposure":null,"land_use":null,"timezone":"+07:00","wmo_id":"96163","station_id":"23"},{"station_number":"96165","station_name":"Stasiun Geofisika Silaing Bawah","idrefregency":"72","type":"mkg","region":"Region I","latitude":"-0.46630","longitude":"100.37970","elevation":"735","soil":"47.00000","exposure":"21","land_use":"21","timezone":"+07:00","wmo_id":"96165","station_id":"24"},{"station_number":"96167","station_name":"Stasiun Klimatologi Padang Pariaman","idrefregency":"61","type":"mkg","region":"Region I","latitude":"-0.54549","longitude":"100.29786","elevation":"128","soil":null,"exposure":null,"land_use":null,"timezone":"+07:00","wmo_id":"96167","station_id":"25"},{"station_number":"96171","station_name":"Stasiun Meteorologi Japura","idrefregency":"77","type":"mkg","region":"Region I","latitude":"-0.33000","longitude":"102.32000","elevation":"19","soil":"43.00000","exposure":"22","land_use":"26","timezone":"+07:00","wmo_id":"96171","station_id":"26"},{"station_number":"96179","station_name":"Stasiun Meteorologi Dabo Singkep","idrefregency":"148","type":"mkg","region":"Region I","latitude":"-0.48000","longitude":"104.58000","elevation":"29","soil":"44.00000","exposure":"42","land_use":"28","timezone":"+07:00","wmo_id":"96179","station_id":"27"},{"station_number":"96191","station_name":"Stasiun Klimatologi Muaro Jambi","idrefregency":"92","type":"mkg","region":"Region II","latitude":"-1.60190","longitude":"103.48444","elevation":"24","soil":null,"exposure":null,"land_use":null,"timezone":"+07:00","wmo_id":"96191","station_id":"28"},{"station_number":"96195","station_name":"Stasiun Meteorologi Sultan Thaha","idrefregency":"97","type":"mkg","region":"Region II","latitude":"-1.63368","longitude":"103.64000","elevation":"26","soil":null,"exposure":"22","land_use":"28","timezone":"+07:00","wmo_id":"96195","station_id":"29"},{"station_number":"96169","station_name":"Stasiun Pemantau Atmosfer Global Bukit Koto Tabang","idrefregency":"62","type":"mkg","region":"Region I","latitude":"-0.25050","longitude":"100.38230","elevation":"895","soil":"51.00000","exposure":"41","land_use":"25","timezone":"+07:00","wmo_id":"96169","station_id":"30"},{"station_number":"96207","station_name":"Stasiun Meteorologi Depati Parbo","idrefregency":"88","type":"mkg","region":"Region II","latitude":"-2.08300","longitude":"101.45000","elevation":"782","soil":"47.00000","exposure":"22","land_use":"22","timezone":"+07:00","wmo_id":"96207","station_id":"31"},{"station_number":"96221","station_name":"Stasiun Meteorologi Sultan Mahmud Badaruddin II","idrefregency":"110","type":"mkg","region":"Region II","latitude":"-2.89468","longitude":"104.70129","elevation":"10","soil":"41.00000","exposure":"21","land_use":"26","timezone":"+07:00","wmo_id":"96221","station_id":"32"},{"station_number":"96223","station_name":"Stasiun Klimatologi Palembang","idrefregency":"110","type":"mkg","region":"Region II","latitude":"-2.92732","longitude":"104.77197","elevation":"11","soil":"52.00000","exposure":"22","land_use":"21","timezone":"+07:00","wmo_id":"96223","station_id":"33"},{"station_number":"96237","station_name":"Stasiun Meteorologi Depati Amir","idrefregency":"144","type":"mkg","region":"Region II","latitude":"-2.17000","longitude":"106.13000","elevation":"0","soil":null,"exposure":null,"land_use":"21","timezone":"+07:00","wmo_id":"96237","station_id":"34"},{"station_number":"96247","station_name":"Stasiun Geofisika Tanjung Pandan","idrefregency":"139","type":"mkg","region":"Region II","latitude":"-2.75750","longitude":"107.65000","elevation":"22","soil":null,"exposure":null,"land_use":null,"timezone":"+07:00","wmo_id":"96247","station_id":"35"},{"station_number":"96249","station_name":"Stasiun Meteorologi H. Asan Hananjoedin","idrefregency":"139","type":"mkg","region":"Region II","latitude":"-2.75000","longitude":"107.75000","elevation":"50","soil":null,"exposure":null,"land_use":null,"timezone":"+07:00","wmo_id":"96249","station_id":"36"},{"station_number":"96253","station_name":"Stasiun Meteorologi Fatmawati Soekarno","idrefregency":"123","type":"mkg","region":"Region II","latitude":"-3.85820","longitude":"102.33670","elevation":"24","soil":null,"exposure":null,"land_use":null,"timezone":"+07:00","wmo_id":"96253","station_id":"37"},{"station_number":"96255","station_name":"Stasiun Klimatologi Bengkulu","idrefregency":"123","type":"mkg","region":"Region II","latitude":"-3.86520","longitude":"102.31190","elevation":"12","soil":null,"exposure":null,"land_use":null,"timezone":"+07:00","wmo_id":"96255","station_id":"38"},{"station_number":"96257","station_name":"Stasiun Geofisika Kepahiyang","idrefregency":"121","type":"mkg","region":"Region II","latitude":"-3.55000","longitude":"102.58900","elevation":"517","soil":null,"exposure":null,"land_use":null,"timezone":"+07:00","wmo_id":"96257","station_id":"39"},{"station_number":"96291","station_name":"Stasiun Klimatologi Pesawaran","idrefregency":"132","type":"mkg","region":"Region II","latitude":"-5.17236","longitude":"105.18000","elevation":"71","soil":null,"exposure":"2","land_use":"23","timezone":"+07:00","wmo_id":"96291","station_id":"40"},{"station_number":"96293","station_name":"Stasiun Meteorologi Maritim Lampung","idrefregency":"136","type":"mkg","region":"Region II","latitude":"-5.47210","longitude":"105.32100","elevation":"7","soil":"51.00000","exposure":"45","land_use":"21","timezone":"+07:00","wmo_id":"96293","station_id":"41"},{"station_number":"96295","station_name":"Stasiun Meteorologi Radin Inten II","idrefregency":"124","type":"mkg","region":"Region II","latitude":"-5.16000","longitude":"105.11000","elevation":"85","soil":null,"exposure":null,"land_use":null,"timezone":"+07:00","wmo_id":"96295","station_id":"42"},{"station_number":"96297","station_name":"Stasiun Geofisika Kota Bumi","idrefregency":"126","type":"mkg","region":"Region II","latitude":"-4.83631","longitude":"104.87000","elevation":"60","soil":"52.00000","exposure":"22","land_use":"21","timezone":"+07:00","wmo_id":"96297","station_id":"43"},{"station_number":"96505","station_name":"Stasiun Meteorologi Yuvai Semaring","idrefregency":"505","type":"mkg","region":"Region III","latitude":"3.86000","longitude":"115.68000","elevation":"1090","soil":"44.00000","exposure":"22","land_use":"26","timezone":"+08:00","wmo_id":"96505","station_id":"44"},{"station_number":"96503","station_name":"Stasiun Meteorologi Nunukan","idrefregency":"505","type":"mkg","region":"Region III","latitude":"4.13000","longitude":"117.67000","elevation":"8","soil":null,"exposure":null,"land_use":null,"timezone":"+08:00","wmo_id":"96503","station_id":"45"},{"station_number":"96509","station_name":"Stasiun Meteorologi Juwata","idrefregency":"507","type":"mkg","region":"Region III","latitude":"3.33000","longitude":"117.57000","elevation":"6","soil":null,"exposure":null,"land_use":null,"timezone":"+08:00","wmo_id":"96509","station_id":"46"},{"station_number":"96529","station_name":"Stasiun Meteorologi Kalimarau ","idrefregency":"353","type":"mkg","region":"Region III","latitude":"2.14562","longitude":"117.43375","elevation":"13","soil":"43.00000","exposure":"47","land_use":"23","timezone":"+08:00","wmo_id":"96529","station_id":"47"},{"station_number":"96535","station_name":"Stasiun Meteorologi Paloh","idrefregency":"310","type":"mkg","region":"Region II","latitude":"1.74000","longitude":"109.30000","elevation":"15","soil":null,"exposure":null,"land_use":"23","timezone":"+07:00","wmo_id":"96535","station_id":"48"},{"station_number":"96557","station_name":"Stasiun Meteorologi Nangapinoh","idrefregency":"319","type":"mkg","region":"Region II","latitude":"-0.42000","longitude":"111.47000","elevation":"40","soil":"43.00000","exposure":"21","land_use":"27","timezone":"+07:00","wmo_id":"96557","station_id":"49"},{"station_number":"96559","station_name":"Stasiun Meteorologi Susilo","idrefregency":"314","type":"mkg","region":"Region II","latitude":"0.06000","longitude":"111.47000","elevation":"31","soil":"43.00000","exposure":"2","land_use":"23","timezone":"+07:00","wmo_id":"96559","station_id":"50"},{"station_number":"96565","station_name":"Stasiun Meteorologi Pangsuma","idrefregency":"315","type":"mkg","region":"Region II","latitude":"0.84000","longitude":"112.93000","elevation":"43","soil":null,"exposure":"22","land_use":"21","timezone":"+07:00","wmo_id":"96565","station_id":"51"},{"station_number":"96581","station_name":"Stasiun Meteorologi Supadio","idrefregency":"322","type":"mkg","region":"Region II","latitude":"-0.14206","longitude":"109.45000","elevation":"3","soil":null,"exposure":"22","land_use":"22","timezone":"+07:00","wmo_id":"96581","station_id":"52"},{"station_number":"96583","station_name":"Stasiun Klimatologi Mempawah","idrefregency":"311","type":"mkg","region":"Region II","latitude":"0.07500","longitude":"109.19000","elevation":"2","soil":"52.00000","exposure":"22","land_use":"22","timezone":"+07:00","wmo_id":"96583","station_id":"53"},{"station_number":"96595","station_name":"Stasiun Meteorologi Beringin","idrefregency":"328","type":"mkg","region":"Region III","latitude":"-0.56000","longitude":"114.53000","elevation":"42","soil":"43.00000","exposure":"47","land_use":"26","timezone":"+07:00","wmo_id":"96595","station_id":"54"},{"station_number":"96607","station_name":"Stasiun Meteorologi Temindung","idrefregency":"362","type":"mkg","region":"Region III","latitude":"-0.48000","longitude":"117.16000","elevation":"10","soil":null,"exposure":null,"land_use":null,"timezone":"+08:00","wmo_id":"96607","station_id":"55"},{"station_number":"96615","station_name":"Stasiun Meteorologi Rahadi Oesman","idrefregency":"313","type":"mkg","region":"Region II","latitude":"-1.80000","longitude":"109.97000","elevation":"9","soil":null,"exposure":null,"land_use":"22","timezone":"+07:00","wmo_id":"96615","station_id":"56"},{"station_number":"96633","station_name":"Stasiun Meteorologi Sultan Aji Muhammad Sulaiman Sepinggan","idrefregency":"361","type":"mkg","region":"Region III","latitude":"-1.26000","longitude":"116.90000","elevation":"3","soil":null,"exposure":null,"land_use":null,"timezone":"+08:00","wmo_id":"96633","station_id":"57"},{"station_number":"96635","station_name":"Stasiun Geofisika Balikpapan","idrefregency":"361","type":"mkg","region":"Region III","latitude":"-1.25530","longitude":"116.91463","elevation":"31","soil":"43.00000","exposure":"22","land_use":"21","timezone":"+08:00","wmo_id":"96635","station_id":"58"},{"station_number":"96645","station_name":"Stasiun Meteorologi Iskandar","idrefregency":"324","type":"mkg","region":"Region III","latitude":"-2.73000","longitude":"111.66000","elevation":"22","soil":"50.00000","exposure":"22","land_use":"25","timezone":"+07:00","wmo_id":"96645","station_id":"59"},{"station_number":"96651","station_name":"Stasiun Meteorologi H. Asan","idrefregency":"325","type":"mkg","region":"Region III","latitude":"-2.55000","longitude":"112.93000","elevation":"3","soil":null,"exposure":null,"land_use":null,"timezone":"+07:00","wmo_id":"96651","station_id":"60"},{"station_number":"96653","station_name":"Stasiun Meteorologi Sanggu","idrefregency":"327","type":"mkg","region":"Region III","latitude":"-1.67000","longitude":"114.90000","elevation":"37","soil":null,"exposure":null,"land_use":null,"timezone":"+07:00","wmo_id":"96653","station_id":"61"},{"station_number":"96655","station_name":"Stasiun Meteorologi Tjilik Riwut","idrefregency":"337","type":"mkg","region":"Region III","latitude":"-2.22000","longitude":"113.95000","elevation":"27","soil":null,"exposure":null,"land_use":null,"timezone":"+08:00","wmo_id":"96655","station_id":"62"},{"station_number":"96685","station_name":"Stasiun Meteorologi Syamsudin Noor","idrefregency":"349","type":"mkg","region":"Region III","latitude":"-3.44200","longitude":"114.75400","elevation":"32","soil":"53.00000","exposure":"22","land_use":"21","timezone":"+08:00","wmo_id":"96685","station_id":"63"},{"station_number":"96687","station_name":"Stasiun Klimatologi Banjar Baru","idrefregency":"350","type":"mkg","region":"Region III","latitude":"-3.46225","longitude":"114.84000","elevation":"55","soil":"43.00000","exposure":"22","land_use":"21","timezone":"+08:00","wmo_id":"96687","station_id":"64"},{"station_number":"96695","station_name":"Stasiun Meteorologi Gusti Syamsir Alam","idrefregency":"339","type":"mkg","region":"Region III","latitude":"-3.30000","longitude":"116.17000","elevation":"2","soil":"53.00000","exposure":"22","land_use":"26","timezone":"+08:00","wmo_id":"96695","station_id":"65"},{"station_number":"96733","station_name":"Stasiun Klimatologi Tangerang Selatan","idrefregency":"269","type":"mkg","region":"Region II","latitude":"-6.26151","longitude":"106.75084","elevation":"27","soil":"53.00000","exposure":"48","land_use":"21","timezone":"+07:00","wmo_id":"96733","station_id":"66"},{"station_number":"96735","station_name":"Stasiun Geofisika Tangerang","idrefregency":"266","type":"mkg","region":"Region II","latitude":"-6.10000","longitude":"106.38000","elevation":"14","soil":"47.00000","exposure":"22","land_use":"23","timezone":"+07:00","wmo_id":"96735","station_id":"67"},{"station_number":"96737","station_name":"Stasiun Meteorologi Serang","idrefregency":"268","type":"mkg","region":"Region II","latitude":"-6.11185","longitude":"106.11000","elevation":"100","soil":null,"exposure":null,"land_use":null,"timezone":"+07:00","wmo_id":"96737","station_id":"68"},{"station_number":"96739","station_name":"Stasiun Meteorologi Budiarto","idrefregency":"264","type":"mkg","region":"Region II","latitude":"-6.28670","longitude":"106.56389","elevation":"42","soil":null,"exposure":null,"land_use":null,"timezone":"+07:00","wmo_id":"96739","station_id":"69"},{"station_number":"96741","station_name":"Stasiun Meteorologi Maritim Tanjung Priok","idrefregency":"154","type":"mkg","region":"Region II","latitude":"-6.10781","longitude":"106.88053","elevation":"3","soil":null,"exposure":null,"land_use":null,"timezone":"+07:00","wmo_id":"96741","station_id":"70"},{"station_number":"96743","station_name":"Stasiun Geofisika Gorontalo","idrefregency":"429","type":"mkg","region":"Region IV","latitude":"0.55588","longitude":"123.14060","elevation":"4","soil":null,"exposure":null,"land_use":null,"timezone":"+08:00","wmo_id":"96743","station_id":"71"},{"station_number":"96745","station_name":"Stasiun Meteorologi Kemayoran","idrefregency":"153","type":"mkg","region":"Region II","latitude":"-6.15559","longitude":"106.84000","elevation":"4","soil":"53.00000","exposure":"49","land_use":"21","timezone":"+07:00","wmo_id":"96745","station_id":"72"},{"station_number":"96749","station_name":"Stasiun Meteorologi Soekarno Hatta","idrefregency":"266","type":"mkg","region":"Region II","latitude":"-6.12000","longitude":"106.65000","elevation":"11","soil":null,"exposure":null,"land_use":null,"timezone":"+07:00","wmo_id":"96749","station_id":"73"},{"station_number":"96751","station_name":"Stasiun Meteorologi Citeko","idrefregency":"158","type":"mkg","region":"Region II","latitude":"-6.70000","longitude":"106.85000","elevation":"920","soil":null,"exposure":null,"land_use":null,"timezone":"+07:00","wmo_id":"96751","station_id":"74"},{"station_number":"96753","station_name":"Stasiun Klimatologi Bogor","idrefregency":"175","type":"mkg","region":"Region II","latitude":"-6.50000","longitude":"106.75000","elevation":"207","soil":null,"exposure":null,"land_use":null,"timezone":"+07:00","wmo_id":"96753","station_id":"75"},{"station_number":"96783","station_name":"Stasiun Geofisika Bandung","idrefregency":"177","type":"mkg","region":"Region II","latitude":"-6.88356","longitude":"107.59733","elevation":"791","soil":null,"exposure":null,"land_use":null,"timezone":"+07:00","wmo_id":"96783","station_id":"76"},{"station_number":"96791","station_name":"Stasiun Meteorologi Jatiwangi","idrefregency":"167","type":"mkg","region":"Region II","latitude":"-6.73440","longitude":"108.26300","elevation":"85","soil":"42.00000","exposure":"21","land_use":"21","timezone":"+07:00","wmo_id":"96791","station_id":"77"},{"station_number":"96797","station_name":"Stasiun Meteorologi Tegal","idrefregency":"211","type":"mkg","region":"Region II","latitude":"-6.86817","longitude":"109.12103","elevation":"1","soil":"53.00000","exposure":"42","land_use":"21","timezone":"+07:00","wmo_id":"96797","station_id":"78"},{"station_number":"96805","station_name":"Stasiun Meteorologi Cilacap","idrefregency":"184","type":"mkg","region":"Region II","latitude":"-7.71890","longitude":"109.01490","elevation":"8","soil":null,"exposure":null,"land_use":null,"timezone":"+07:00","wmo_id":"96805","station_id":"79"},{"station_number":"96835","station_name":"Stasiun Klimatologi Semarang","idrefregency":"216","type":"mkg","region":"Region II","latitude":"-6.98470","longitude":"110.38120","elevation":"6","soil":"47.00000","exposure":"22","land_use":"22","timezone":"+07:00","wmo_id":"96835","station_id":"80"},{"station_number":"96837","station_name":"Stasiun Meteorologi Maritim Tanjung Mas","idrefregency":"216","type":"mkg","region":"Region II","latitude":"-6.94860","longitude":"110.41990","elevation":"2","soil":null,"exposure":null,"land_use":null,"timezone":"+07:00","wmo_id":"96837","station_id":"81"},{"station_number":"96839","station_name":"Stasiun Meteorologi Ahmad Yani","idrefregency":"216","type":"mkg","region":"Region II","latitude":"-6.97683","longitude":"110.37780","elevation":"5","soil":null,"exposure":null,"land_use":null,"timezone":"+07:00","wmo_id":"96839","station_id":"82"},{"station_number":"96855","station_name":"Stasiun Geofisika Yogyakarta","idrefregency":"222","type":"mkg","region":"Region II","latitude":"-7.82000","longitude":"110.30000","elevation":"153","soil":null,"exposure":null,"land_use":null,"timezone":"+07:00","wmo_id":"96855","station_id":"83"},{"station_number":"96925","station_name":"Stasiun Meteorologi Sangkapura","idrefregency":"248","type":"mkg","region":"Region III","latitude":"-5.85110","longitude":"112.65780","elevation":"3","soil":"47.00000","exposure":"22","land_use":"21","timezone":"+07:00","wmo_id":"96925","station_id":"84"},{"station_number":"96933","station_name":"Stasiun Meteorologi Perak I","idrefregency":"260","type":"mkg","region":"Region III","latitude":"-7.22360","longitude":"112.72390","elevation":"3","soil":"47.00000","exposure":"45","land_use":"28","timezone":"+07:00","wmo_id":"96933","station_id":"85"},{"station_number":"96935","station_name":"Stasiun Meteorologi Juanda","idrefregency":"238","type":"mkg","region":"Region III","latitude":"-7.38460","longitude":"112.78330","elevation":"3","soil":"47.00000","exposure":null,"land_use":null,"timezone":"+07:00","wmo_id":"96935","station_id":"86"},{"station_number":"96937","station_name":"Stasiun Meteorologi Maritim Perak II","idrefregency":"260","type":"mkg","region":"Region III","latitude":"-7.20530","longitude":"112.73530","elevation":"3","soil":"48.00000","exposure":"49","land_use":"28","timezone":"+07:00","wmo_id":"96937","station_id":"87"},{"station_number":"96943","station_name":"Stasiun Klimatologi Malang","idrefregency":"230","type":"mkg","region":"Region III","latitude":"-7.90080","longitude":"112.59790","elevation":"590","soil":"52.00000","exposure":"22","land_use":"22","timezone":"+07:00","wmo_id":"96943","station_id":"88"},{"station_number":"96945","station_name":"Stasiun Geofisika Tretes","idrefregency":"237","type":"mkg","region":"Region III","latitude":"-7.70456","longitude":"112.63533","elevation":"832","soil":null,"exposure":null,"land_use":null,"timezone":"+07:00","wmo_id":"96945","station_id":"89"},{"station_number":"96949","station_name":"Stasiun Geofisika Karang Kates","idrefregency":"230","type":"mkg","region":"Region III","latitude":"-8.15000","longitude":"112.45000","elevation":"285","soil":"52.00000","exposure":"41","land_use":"23","timezone":"+07:00","wmo_id":"96949","station_id":"90"},{"station_number":"96973","station_name":"Stasiun Meteorologi Kalianget","idrefregency":"252","type":"mkg","region":"Region III","latitude":"-7.05000","longitude":"113.97000","elevation":"0","soil":null,"exposure":null,"land_use":null,"timezone":"+07:00","wmo_id":"96973","station_id":"91"},{"station_number":"96975","station_name":"Stasiun Geofisika Sawahan","idrefregency":"241","type":"mkg","region":"Region III","latitude":"-7.73486","longitude":"111.76682","elevation":"723","soil":null,"exposure":null,"land_use":null,"timezone":"+07:00","wmo_id":"96975","station_id":"92"},{"station_number":"96987","station_name":"Stasiun Meteorologi Banyuwangi","idrefregency":"233","type":"mkg","region":"Region III","latitude":"-8.21500","longitude":"114.35530","elevation":"52","soil":null,"exposure":null,"land_use":null,"timezone":"+07:00","wmo_id":"96987","station_id":"93"},{"station_number":"97008","station_name":"Stasiun Meteorologi Naha","idrefregency":"367","type":"mkg","region":"Region IV","latitude":"3.68594","longitude":"125.52881","elevation":"6","soil":null,"exposure":null,"land_use":null,"timezone":"+08:00","wmo_id":"97008","station_id":"94"},{"station_number":"97012","station_name":"Stasiun Klimatologi Minahasa Utara","idrefregency":"370","type":"mkg","region":"Region IV","latitude":"1.54585","longitude":"124.92330","elevation":"84","soil":null,"exposure":null,"land_use":null,"timezone":"+08:00","wmo_id":"97012","station_id":"95"},{"station_number":"97014","station_name":"Stasiun Meteorologi Sam Ratulangi","idrefregency":"376","type":"mkg","region":"Region IV","latitude":"1.54575","longitude":"124.92340","elevation":"80","soil":"52.00000","exposure":"49","land_use":"23","timezone":"+08:00","wmo_id":"97014","station_id":"96"},{"station_number":"97016","station_name":"Stasiun Meteorologi Maritim Bitung","idrefregency":"377","type":"mkg","region":"Region IV","latitude":"1.44310","longitude":"125.17970","elevation":"4","soil":"53.00000","exposure":"22","land_use":"21","timezone":"+08:00","wmo_id":"97016","station_id":"97"},{"station_number":"97028","station_name":"Stasiun Meteorologi Sultan Bantilan","idrefregency":"383","type":"mkg","region":"Region IV","latitude":"1.12114","longitude":"120.79433","elevation":"8","soil":null,"exposure":null,"land_use":null,"timezone":"+08:00","wmo_id":"97028","station_id":"98"},{"station_number":"97048","station_name":"Stasiun Meteorologi Djalaluddin","idrefregency":"427","type":"mkg","region":"Region IV","latitude":"0.63850","longitude":"122.85250","elevation":"33","soil":"52.00000","exposure":"22","land_use":"21","timezone":"+08:00","wmo_id":"97048","station_id":"99"},{"station_number":"97072","station_name":"Stasiun Meteorologi Mutiara Sis-Al Jufri","idrefregency":"390","type":"mkg","region":"Region IV","latitude":"-0.91589","longitude":"119.90554","elevation":"79","soil":"41.00000","exposure":"22","land_use":"26","timezone":"+08:00","wmo_id":"97072","station_id":"100"},{"station_number":"97074","station_name":"Stasiun Geofisika Palu","idrefregency":"390","type":"mkg","region":"Region IV","latitude":"-0.90536","longitude":"119.83670","elevation":"75","soil":"52.00000","exposure":"42","land_use":"21","timezone":"+08:00","wmo_id":"97074","station_id":"101"},{"station_number":"97086","station_name":"Stasiun Meteorologi Syukuran Aminudin Amir Luwuk","idrefregency":"380","type":"mkg","region":"Region IV","latitude":"-1.04064","longitude":"122.77100","elevation":"19","soil":"53.00000","exposure":"45","land_use":"21","timezone":"+08:00","wmo_id":"97086","station_id":"102"},{"station_number":"97096","station_name":"Stasiun Meteorologi Kasiguncu","idrefregency":"381","type":"mkg","region":"Region IV","latitude":"-1.42038","longitude":"120.65701","elevation":"10","soil":null,"exposure":null,"land_use":null,"timezone":"+08:00","wmo_id":"97096","station_id":"103"},{"station_number":"97120","station_name":"Stasiun Meteorologi Majene","idrefregency":"437","type":"mkg","region":"Region IV","latitude":"-3.55074","longitude":"118.98054","elevation":"29","soil":null,"exposure":"41","land_use":"28","timezone":"+08:00","wmo_id":"97120","station_id":"104"},{"station_number":"97124","station_name":"Stasiun Meteorologi Pongtiku","idrefregency":"408","type":"mkg","region":"Region IV","latitude":"-3.04524","longitude":"119.81885","elevation":"829","soil":null,"exposure":null,"land_use":null,"timezone":"+08:00","wmo_id":"97124","station_id":"105"},{"station_number":"97126","station_name":"Stasiun Meteorologi Andi Jemma","idrefregency":"409","type":"mkg","region":"Region IV","latitude":"-2.55472","longitude":"120.32422","elevation":"43","soil":"53.00000","exposure":"22","land_use":"21","timezone":"+08:00","wmo_id":"97126","station_id":"106"},{"station_number":"97142","station_name":"Stasiun Meteorologi Sangia Ni Bandera","idrefregency":"415","type":"mkg","region":"Region IV","latitude":"-4.18059","longitude":"121.61077","elevation":"14","soil":null,"exposure":null,"land_use":null,"timezone":"+08:00","wmo_id":"97142","station_id":"107"},{"station_number":"97144","station_name":"Stasiun Meteorologi Maritim Kendari","idrefregency":"425","type":"mkg","region":"Region IV","latitude":"-3.97010","longitude":"122.58950","elevation":"2","soil":"43.00000","exposure":"21","land_use":"23","timezone":"+08:00","wmo_id":"97144","station_id":"108"},{"station_number":"97146","station_name":"Stasiun Geofisika Kendari","idrefregency":"425","type":"mkg","region":"Region IV","latitude":"-3.96000","longitude":"122.62000","elevation":"10","soil":null,"exposure":null,"land_use":null,"timezone":"+08:00","wmo_id":"97146","station_id":"109"},{"station_number":"97180","station_name":"Stasiun Meteorologi Hasanuddin","idrefregency":"399","type":"mkg","region":"Region IV","latitude":"-5.07000","longitude":"119.55000","elevation":"14","soil":null,"exposure":null,"land_use":null,"timezone":"+08:00","wmo_id":"97180","station_id":"110"},{"station_number":"97182","station_name":"Stasiun Meteorologi Maritim Paotere","idrefregency":"412","type":"mkg","region":"Region IV","latitude":"-5.11375","longitude":"119.41983","elevation":"5","soil":null,"exposure":"22","land_use":"21","timezone":"+08:00","wmo_id":"97182","station_id":"111"},{"station_number":"97184","station_name":"Stasiun Klimatologi Maros","idrefregency":"399","type":"mkg","region":"Region IV","latitude":"-4.93080","longitude":"119.57200","elevation":"13","soil":null,"exposure":"47","land_use":"22","timezone":"+08:00","wmo_id":"97184","station_id":"112"},{"station_number":"97186","station_name":"Stasiun Geofisika Gowa","idrefregency":"396","type":"mkg","region":"Region IV","latitude":"-5.21800","longitude":"119.47000","elevation":"22","soil":null,"exposure":null,"land_use":null,"timezone":"+08:00","wmo_id":"97186","station_id":"113"},{"station_number":"97192","station_name":"Stasiun Meteorologi Beto Ambari","idrefregency":"426","type":"mkg","region":"Region IV","latitude":"-5.47000","longitude":"122.62000","elevation":"233","soil":null,"exposure":null,"land_use":null,"timezone":"+08:00","wmo_id":"97192","station_id":"114"},{"station_number":"97230","station_name":"Stasiun Meteorologi Ngurah Rai ","idrefregency":"272","type":"mkg","region":"Region III","latitude":"-8.75000","longitude":"115.17000","elevation":"4","soil":"53.00000","exposure":"22","land_use":"23","timezone":"+08:00","wmo_id":"97230","station_id":"115"},{"station_number":"97232","station_name":"Stasiun Geofisika Sanglah","idrefregency":"278","type":"mkg","region":"Region III","latitude":"-8.67689","longitude":"115.21000","elevation":"15","soil":"52.00000","exposure":"49","land_use":"21","timezone":"+08:00","wmo_id":"97232","station_id":"116"},{"station_number":"97234","station_name":"Pos Pengamatan Kahang-Kahang","idrefregency":"276","type":"mkg","region":"Region III","latitude":"-8.36500","longitude":"115.61083","elevation":"155","soil":"47.00000","exposure":"22","land_use":"22","timezone":"+08:00","wmo_id":"97234","station_id":"117"},{"station_number":"97236","station_name":"Stasiun Klimatologi Jembrana","idrefregency":"270","type":"mkg","region":"Region III","latitude":"-8.34100","longitude":"114.61760","elevation":"25","soil":"47.00000","exposure":"2","land_use":"22","timezone":"+08:00","wmo_id":"97236","station_id":"118"},{"station_number":"97240","station_name":"Stasiun Meteorologi Bandara Internasional Lombok","idrefregency":"287","type":"mkg","region":"Region III","latitude":"-8.75277","longitude":"116.24982","elevation":"92","soil":"47.00000","exposure":"47","land_use":"26","timezone":"+08:00","wmo_id":"97240","station_id":"119"},{"station_number":"97242","station_name":"Stasiun Klimatologi Lombok Barat","idrefregency":"279","type":"mkg","region":"Region III","latitude":"-8.63627","longitude":"116.17094","elevation":"55","soil":"47.00000","exposure":"42","land_use":"22","timezone":"+08:00","wmo_id":"97242","station_id":"120"},{"station_number":"97260","station_name":"Stasiun Meteorologi Sultan Muhammad Kaharudin","idrefregency":"282","type":"mkg","region":"Region III","latitude":"-8.48845","longitude":"117.41336","elevation":"10","soil":null,"exposure":null,"land_use":"23","timezone":"+08:00","wmo_id":"97260","station_id":"121"},{"station_number":"97270","station_name":"Stasiun Meteorologi Sultan Muhammad Salahudin","idrefregency":"288","type":"mkg","region":"Region III","latitude":"-8.54279","longitude":"118.69280","elevation":"5","soil":"44.00000","exposure":"2","land_use":"26","timezone":"+08:00","wmo_id":"97270","station_id":"122"},{"station_number":"97282","station_name":"Stasiun Meteorologi Komodo","idrefregency":"303","type":"mkg","region":"Region III","latitude":"-8.48673","longitude":"119.88683","elevation":"67","soil":"52.00000","exposure":"22","land_use":"26","timezone":"+08:00","wmo_id":"97282","station_id":"123"},{"station_number":"97284","station_name":"Stasiun Meteorologi Frans Sales Lega","idrefregency":"298","type":"mkg","region":"Region III","latitude":"-8.63000","longitude":"120.45000","elevation":"1070","soil":null,"exposure":"22","land_use":null,"timezone":"+08:00","wmo_id":"97284","station_id":"124"},{"station_number":"97300","station_name":"Stasiun Meteorologi Fransiskus Xaverius Seda","idrefregency":"295","type":"mkg","region":"Region III","latitude":"-8.63577","longitude":"122.23752","elevation":"28","soil":null,"exposure":null,"land_use":null,"timezone":"+08:00","wmo_id":"97300","station_id":"125"},{"station_number":"97310","station_name":"Stasiun Meteorologi Gewayantana","idrefregency":"294","type":"mkg","region":"Region III","latitude":"-8.27520","longitude":"122.99860","elevation":"9","soil":null,"exposure":"49","land_use":"21","timezone":"+08:00","wmo_id":"97310","station_id":"126"},{"station_number":"97320","station_name":"Stasiun Meteorologi Mali","idrefregency":"293","type":"mkg","region":"Region III","latitude":"-8.13471","longitude":"124.59000","elevation":"10","soil":"53.00000","exposure":"45","land_use":"26","timezone":"+08:00","wmo_id":"97320","station_id":"127"},{"station_number":"97340","station_name":"Stasiun Meteorologi Umbu Mehang Kunda","idrefregency":"299","type":"mkg","region":"Region III","latitude":"-9.66944","longitude":"120.29972","elevation":"10","soil":"51.00000","exposure":"43","land_use":"21","timezone":"+08:00","wmo_id":"97340","station_id":"128"},{"station_number":"97342","station_name":"Stasiun Geofisika Waingapu","idrefregency":"299","type":"mkg","region":"Region III","latitude":"-9.66917","longitude":"120.29776","elevation":"13","soil":null,"exposure":null,"land_use":null,"timezone":"+08:00","wmo_id":"97342","station_id":"129"},{"station_number":"97374","station_name":"Stasiun Klimatologi Kupang","idrefregency":"309","type":"mkg","region":"Region III","latitude":"-10.13861","longitude":"123.66722","elevation":"19","soil":"46.00000","exposure":"2","land_use":"26","timezone":"+08:00","wmo_id":"97374","station_id":"130"},{"station_number":"97372","station_name":"Stasiun Meteorologi Eltari","idrefregency":"309","type":"mkg","region":"Region III","latitude":"-10.16780","longitude":"123.67039","elevation":"102","soil":null,"exposure":null,"land_use":null,"timezone":null,"wmo_id":"97372","station_id":"131"},{"station_number":"97376","station_name":"Stasiun Geofisika Kampung Baru","idrefregency":"309","type":"mkg","region":"Region III","latitude":"-10.16453","longitude":"123.58933","elevation":"56","soil":null,"exposure":null,"land_use":null,"timezone":"+08:00","wmo_id":"97376","station_id":"132"},{"station_number":"97378","station_name":"Stasiun Meteorologi David Constatijn Saudale","idrefregency":"302","type":"mkg","region":"Region III","latitude":"-10.76662","longitude":"123.07395","elevation":"141","soil":"47.00000","exposure":"45","land_use":"26","timezone":"+08:00","wmo_id":"97378","station_id":"133"},{"station_number":"97380","station_name":"Stasiun Meteorologi Tardamu","idrefregency":"289","type":"mkg","region":"Region III","latitude":"-10.50000","longitude":"121.83000","elevation":"15","soil":"53.00000","exposure":"42","land_use":"26","timezone":"+08:00","wmo_id":"97380","station_id":"134"},{"station_number":"97406","station_name":"Stasiun Meteorologi Gamar Malamo","idrefregency":"451","type":"mkg","region":"Region IV","latitude":"1.84092","longitude":"127.79050","elevation":"130","soil":"53.00000","exposure":"22","land_use":"23","timezone":"+09:00","wmo_id":"97406","station_id":"135"},{"station_number":"97430","station_name":"Stasiun Meteorologi Sultan Baabullah","idrefregency":"456","type":"mkg","region":"Region IV","latitude":"0.83330","longitude":"127.38000","elevation":"33","soil":"53.00000","exposure":"22","land_use":"21","timezone":"+09:00","wmo_id":"97430","station_id":"136"},{"station_number":"97432","station_name":"Stasiun Geofisika Ternate","idrefregency":"456","type":"mkg","region":"Region IV","latitude":"0.77190","longitude":"127.36670","elevation":"49","soil":null,"exposure":null,"land_use":null,"timezone":"+09:00","wmo_id":"97432","station_id":"137"},{"station_number":"97460","station_name":"Stasiun Meteorologi Oesman Sadik","idrefregency":"452","type":"mkg","region":"Region IV","latitude":"-0.63784","longitude":"127.50000","elevation":"14","soil":"53.00000","exposure":"22","land_use":"21","timezone":"+09:00","wmo_id":"97460","station_id":"138"},{"station_number":"97502","station_name":"Stasiun Meteorologi Seigun","idrefregency":"497","type":"mkg","region":"Region V","latitude":"-0.89118","longitude":"131.28575","elevation":"0","soil":"41.00000","exposure":"22","land_use":"27","timezone":"+09:00","wmo_id":"97502","station_id":"139"},{"station_number":"97530","station_name":"Stasiun Meteorologi Rendani","idrefregency":"488","type":"mkg","region":"Region V","latitude":"-0.89227","longitude":"134.05041","elevation":"3","soil":"42.00000","exposure":"44","land_use":"26","timezone":"+09:00","wmo_id":"97530","station_id":"140"},{"station_number":"97560","station_name":"Stasiun Meteorologi Frans Kaisiepo","idrefregency":"463","type":"mkg","region":"Region V","latitude":"-1.19069","longitude":"136.10361","elevation":"3","soil":null,"exposure":"21","land_use":"26","timezone":"+09:00","wmo_id":"97560","station_id":"141"},{"station_number":"97570","station_name":"Stasiun Meteorologi Sudjarwo Tjondro Negoro","idrefregency":"462","type":"mkg","region":"Region V","latitude":"-1.87540","longitude":"136.23994","elevation":"3","soil":null,"exposure":null,"land_use":"28","timezone":"+09:00","wmo_id":"97570","station_id":"142"},{"station_number":"97580","station_name":"Stasiun Meteorologi Mararena","idrefregency":"467","type":"mkg","region":"Region V","latitude":"-1.85000","longitude":"138.75000","elevation":"3","soil":null,"exposure":null,"land_use":null,"timezone":"+09:00","wmo_id":"97580","station_id":"143"},{"station_number":"97600","station_name":"Stasiun Meteorologi Emalamo","idrefregency":"453","type":"mkg","region":"Region IV","latitude":"-2.05000","longitude":"126.00000","elevation":"2","soil":"44.00000","exposure":"45","land_use":"21","timezone":"+09:00","wmo_id":"97600","station_id":"144"},{"station_number":"97630","station_name":"Stasiun Meteorologi Torea","idrefregency":"489","type":"mkg","region":"Region V","latitude":"-2.91938","longitude":"132.26496","elevation":"126","soil":"51.00000","exposure":null,"land_use":"28","timezone":"+09:00","wmo_id":"97630","station_id":"145"},{"station_number":"97682","station_name":"Stasiun Meteorologi Moanamani","idrefregency":"461","type":"mkg","region":"Region V","latitude":"-3.35210","longitude":"135.52000","elevation":"3","soil":"52.00000","exposure":null,"land_use":"21","timezone":"+09:00","wmo_id":"97682","station_id":"146"},{"station_number":"97686","station_name":"Stasiun Meteorologi Wamena Jaya Wijaya","idrefregency":"459","type":"mkg","region":"Region V","latitude":"-4.07000","longitude":"138.95000","elevation":"1653","soil":null,"exposure":"48","land_use":"25","timezone":"+09:00","wmo_id":"97686","station_id":"147"},{"station_number":"97690","station_name":"Stasiun Meteorologi Sentani","idrefregency":"460","type":"mkg","region":"Region V","latitude":"-2.57000","longitude":"140.48000","elevation":"96","soil":"43.00000","exposure":"22","land_use":"26","timezone":"+09:00","wmo_id":"97690","station_id":"148"},{"station_number":"97694","station_name":"Stasiun Klimatologi Manokwari Selatan","idrefregency":"488","type":"mkg","region":"Region V","latitude":"-1.47000","longitude":"134.19000","elevation":"20","soil":"42.00000","exposure":"22","land_use":"26","timezone":"+09:00","wmo_id":"97694","station_id":"149"},{"station_number":"97696","station_name":"Stasiun Geofisika Angkasapura","idrefregency":"486","type":"mkg","region":"Region V","latitude":"-2.51461","longitude":"140.70431","elevation":"400","soil":"61.00000","exposure":"22","land_use":"21","timezone":"+09:00","wmo_id":"97696","station_id":"150"},{"station_number":"97698","station_name":"Stasiun Meteorologi Dok II Jayapura","idrefregency":"486","type":"mkg","region":"Region V","latitude":"-2.53000","longitude":"140.72000","elevation":"3","soil":null,"exposure":"22","land_use":"28","timezone":"+09:00","wmo_id":"97698","station_id":"151"},{"station_number":"97700","station_name":"Stasiun Meteorologi Namlea","idrefregency":"441","type":"mkg","region":"Region IV","latitude":"-3.25000","longitude":"127.08000","elevation":"10","soil":"52.00000","exposure":"22","land_use":"26","timezone":"+09:00","wmo_id":"97700","station_id":"152"},{"station_number":"97722","station_name":"Stasiun Meteorologi Amahai","idrefregency":"438","type":"mkg","region":"Region IV","latitude":"-3.34640","longitude":"128.92840","elevation":"10","soil":null,"exposure":"43","land_use":"21","timezone":"+09:00","wmo_id":"97722","station_id":"153"},{"station_number":"97724","station_name":"Stasiun Meteorologi Pattimura","idrefregency":"447","type":"mkg","region":"Region IV","latitude":"-3.71140","longitude":"128.09570","elevation":"14","soil":null,"exposure":null,"land_use":null,"timezone":"+09:00","wmo_id":"97724","station_id":"154"},{"station_number":"97726","station_name":"Stasiun Klimatologi Seram Bagian Barat","idrefregency":"443","type":"mkg","region":"Region IV","latitude":"-3.25000","longitude":"128.40000","elevation":"5","soil":null,"exposure":"22","land_use":"22","timezone":"+09:00","wmo_id":"97726","station_id":"155"},{"station_number":"97728","station_name":"Stasiun Geofisika Karang Panjang","idrefregency":"447","type":"mkg","region":"Region IV","latitude":"-3.69000","longitude":"128.19000","elevation":"83","soil":null,"exposure":null,"land_use":"21","timezone":"+09:00","wmo_id":"97728","station_id":"156"},{"station_number":"97748","station_name":"Stasiun Meteorologi Geser","idrefregency":"442","type":"mkg","region":"Region IV","latitude":"-3.88130","longitude":"130.88000","elevation":"2","soil":null,"exposure":null,"land_use":null,"timezone":null,"wmo_id":"97748","station_id":"157"},{"station_number":"97780","station_name":"Stasiun Meteorologi Enarotali","idrefregency":"465","type":"mkg","region":"Region V","latitude":"-3.92688","longitude":"136.38000","elevation":"1650","soil":null,"exposure":null,"land_use":null,"timezone":"+09:00","wmo_id":"97780","station_id":"158"},{"station_number":"97790","station_name":"Stasiun Meteorologi Bandaneira","idrefregency":"438","type":"mkg","region":"Region IV","latitude":"-4.52338","longitude":"129.90430","elevation":"15","soil":null,"exposure":"2","land_use":"25","timezone":"+09:00","wmo_id":"97790","station_id":"159"},{"station_number":"97796","station_name":"Stasiun Meteorologi Mozez Kilangin","idrefregency":"466","type":"mkg","region":"Region V","latitude":"-4.53006","longitude":"136.89348","elevation":"30","soil":"52.00000","exposure":"22","land_use":"26","timezone":"+09:00","wmo_id":"97796","station_id":"160"},{"station_number":"97810","station_name":"Stasiun Meteorologi Dumatubun Tual","idrefregency":"439","type":"mkg","region":"Region IV","latitude":"-5.66370","longitude":"132.73620","elevation":"10","soil":null,"exposure":"22","land_use":"21","timezone":"+09:00","wmo_id":"97810","station_id":"161"},{"station_number":"97812","station_name":"Stasiun Geofisika Nabire","idrefregency":"461","type":"mkg","region":"Region V","latitude":"-5.64000","longitude":"132.75000","elevation":"22","soil":null,"exposure":null,"land_use":null,"timezone":"+09:00","wmo_id":"97812","station_id":"162"},{"station_number":"97876","station_name":"Stasiun Meteorologi Tanah Merah","idrefregency":"473","type":"mkg","region":"Region V","latitude":"-6.10000","longitude":"140.31000","elevation":"97","soil":"53.00000","exposure":"43","land_use":"26","timezone":"+09:00","wmo_id":"97876","station_id":"163"},{"station_number":"97900","station_name":"Stasiun Meteorologi Mathilda Batlayeri","idrefregency":"440","type":"mkg","region":"Region IV","latitude":"-7.98000","longitude":"131.30000","elevation":"24","soil":"51.00000","exposure":"22","land_use":"21","timezone":"+09:00","wmo_id":"97900","station_id":"164"},{"station_number":"97902","station_name":"Stasiun Geofisika Saumlaki","idrefregency":"440","type":"mkg","region":"Region IV","latitude":"-7.98000","longitude":"131.30000","elevation":"26","soil":"51.00000","exposure":"2","land_use":"21","timezone":"+09:00","wmo_id":"97902","station_id":"165"},{"station_number":"97980","station_name":"Stasiun Meteorologi Mopah","idrefregency":"458","type":"mkg","region":"Region V","latitude":"-8.52019","longitude":"140.41568","elevation":"0","soil":null,"exposure":null,"land_use":null,"timezone":"+09:00","wmo_id":"97980","station_id":"166"},{"station_number":"97010","station_name":"Stasiun Geofisika Winangun","idrefregency":"376","type":"mkg","region":"Region IV","latitude":"1.44340","longitude":"124.83890","elevation":"204","soil":null,"exposure":null,"land_use":null,"timezone":"+08:00","wmo_id":"97010","station_id":"167"},{"station_number":"97978","station_name":"Stasiun Klimatologi Tanah Miring","idrefregency":"458","type":"mkg","region":"Region V","latitude":"-8.38700","longitude":"140.51700","elevation":"5","soil":null,"exposure":null,"land_use":null,"timezone":"+09:00","wmo_id":"97978","station_id":"7945"},{"station_number":"97094","station_name":"Stasiun Pemantau Atmosfer Global Lore Lindu Bariri","idrefregency":"390","type":"mkg","region":"Region IV","latitude":"-1.64990","longitude":"120.18300","elevation":"1369","soil":"52.00000","exposure":"22","land_use":"26","timezone":"+08:00","wmo_id":"97094","station_id":"7947"},{"station_number":"97500","station_name":"Stasiun Pemantau Atmosfer Global Puncak Vihara Klademak","idrefregency":"497","type":"mkg","region":"Region V","latitude":"-0.98100","longitude":"131.30100","elevation":"10","soil":null,"exposure":null,"land_use":null,"timezone":"+09:00","wmo_id":"97500","station_id":"7948"},{"station_number":"97150","station_name":"Stasiun Klimatologi Ranomeeto","idrefregency":"419","type":"mkg","region":"Region IV","latitude":"-4.05600","longitude":"122.44900","elevation":"30","soil":"43.00000","exposure":"21","land_use":"21","timezone":"+08:00","wmo_id":"97150","station_id":"7905"},{"station_number":"97052","station_name":"Stasiun Klimatologi Tilongkabila","idrefregency":"429","type":"mkg","region":"Region IV","latitude":"0.55600","longitude":"123.14000","elevation":"15","soil":null,"exposure":null,"land_use":null,"timezone":"+08:00","wmo_id":"97052","station_id":"7924"},{"station_number":"96939","station_name":"Stasiun Meteorologi Tuban","idrefregency":"246","type":"mkg","region":"Region III","latitude":"-6.82290","longitude":"111.99177","elevation":"5","soil":null,"exposure":null,"land_use":null,"timezone":"+07:00","wmo_id":"96939","station_id":"7949"},{"station_number":"96107","station_name":"Stasiun Klimatologi Tambang","idrefregency":"76","type":"mkg","region":"Region I","latitude":"0.40700","longitude":"101.21700","elevation":"15","soil":null,"exposure":null,"land_use":null,"timezone":"+07:00","wmo_id":"96107","station_id":"7904"},{"station_number":"96851","station_name":"Stasiun Klimatologi Mlati","idrefregency":"222","type":"mkg","region":"Region II","latitude":"-7.73100","longitude":"110.35400","elevation":"182","soil":null,"exposure":null,"land_use":null,"timezone":"+07:00","wmo_id":"96851","station_id":"7944"},{"station_number":"96239","station_name":"Stasiun Klimatologi Koba","idrefregency":"141","type":"mkg","region":"Region II","latitude":"-2.51800","longitude":"106.42200","elevation":"6","soil":null,"exposure":null,"land_use":null,"timezone":"+07:00","wmo_id":"96239","station_id":"7946"},{"station_number":"96747","station_name":"Halim Perdana Kusuma Jakarta","idrefregency":"157","type":"mkg","region":"Region II","latitude":"-6.27036","longitude":"106.88926","elevation":"28","soil":null,"exposure":null,"land_use":null,"timezone":"+07:00","wmo_id":"96747","station_id":"10890"},{"station_number":"97247","station_name":"Stasiun Geofisika Alor","idrefregency":"293","type":"mkg","region":"Region III","latitude":"-8.14450","longitude":"124.59030","elevation":"0","soil":null,"exposure":null,"land_use":null,"timezone":"+08:00","wmo_id":"97247","station_id":"11185"},{"station_number":"97000","station_name":"Balai Besar Meteorologi, Klimatologi, dan Geofisika Wilayah V","idrefregency":"486","type":"mkg","region":"Region V","latitude":"-2.57522","longitude":"140.68624","elevation":"0","soil":null,"exposure":null,"land_use":null,"timezone":"+09:00","wmo_id":"97000","station_id":"172"},{"station_number":"97504","station_name":null,"idrefregency":null,"type":"mkg","region":null,"latitude":null,"longitude":null,"elevation":null,"soil":null,"exposure":null,"land_use":null,"timezone":null,"wmo_id":"97504","station_id":"7125"},{"station_number":"96003","station_name":"Balai Besar Meteorologi, Klimatologi ,  dan Geofisika Wilayah III","idrefregency":"272","type":"mkg","region":"Region III","latitude":"-8.73810","longitude":"115.17860","elevation":"0","soil":null,"exposure":null,"land_use":null,"timezone":null,"wmo_id":"96003","station_id":"170"},{"station_number":"96041","station_name":"Balai Besar Meteorologi, Klimatologi, dan Geofisika Wilayah I","idrefregency":"49","type":"mkg","region":"Region I","latitude":"3.53970","longitude":"98.64000","elevation":"0","soil":null,"exposure":null,"land_use":null,"timezone":"+07:00","wmo_id":"96041","station_id":"168"},{"station_number":"96004","station_name":"Balai Besar Meteorologi, Klimatologi, dan Geofisika Wilayah IV","idrefregency":"412","type":"mkg","region":"Region IV","latitude":"-5.14283","longitude":"119.45227","elevation":"72","soil":null,"exposure":null,"land_use":null,"timezone":"+08:00","wmo_id":"96004","station_id":"171"},{"station_number":"96043","station_name":"Stasiun Meteorologi Silangit","idrefregency":"25","type":"mkg","region":"Region I","latitude":"2.26136","longitude":"98.99357","elevation":"1420","soil":null,"exposure":null,"land_use":null,"timezone":"+07:00","wmo_id":"96043","station_id":"11261"},{"station_number":"97730","station_name":"Stasiun Meteorologi Maritim Ambon","idrefregency":"447","type":"mkg","region":"Region IV","latitude":"-3.79053","longitude":"128.10075","elevation":"3","soil":null,"exposure":null,"land_use":null,"timezone":null,"wmo_id":"97730","station_id":"11262"}]