{
"type": "FeatureCollection",
"name": "BMKG-met-station",
"crs": { "type": "name", "properties": { "name": "urn:ogc:def:crs:OGC:1.3:CRS84" } },
"features": [
{ "type": "Feature", "properties": { "fid": 1, "station_number": 97504, "station_name": "Stasiun Geofisika Sorong", "idrefregency": 497, "type": "mkg", "region": "Region V", "latitude": -0.86, "longitude": 131.26, "elevation": 64, "soil": "null", "exposure": "2", "land_use": "21", "timezone": "+09:00", "wmo_id": 97504, "station_id": 177 }, "geometry": { "type": "Point", "coordinates": [ 131.26, -0.86 ] } },
{ "type": "Feature", "properties": { "fid": 2, "station_number": 96013, "station_name": "Stasiun Geofisika Mata'ie", "idrefregency": 6, "type": "mkg", "region": "Region I", "latitude": 5.496, "longitude": 95.296, "elevation": 32, "soil": "52.00000", "exposure": "21", "land_use": "28", "timezone": "+07:00", "wmo_id": 96013, "station_id": 174 }, "geometry": { "type": "Point", "coordinates": [ 95.296, 5.496 ] } },
{ "type": "Feature", "properties": { "fid": 3, "station_number": 96585, "station_name": "Stasiun Meteorologi Maritim Pontianak", "idrefregency": 322, "type": "mkg", "region": "Region II", "latitude": -0.03, "longitude": 109.34, "elevation": 4, "soil": "52.00000", "exposure": "48", "land_use": "28", "timezone": "+07:00", "wmo_id": 96585, "station_id": 173 }, "geometry": { "type": "Point", "coordinates": [ 109.34, -0.03 ] } },
{ "type": "Feature", "properties": { "fid": 4, "station_number": 96807, "station_name": "Stasiun Geofisika Banjarnegara", "idrefregency": 187, "type": "mkg", "region": "Region II", "latitude": -7.333, "longitude": 109.7069, "elevation": 608, "soil": "null", "exposure": "null", "land_use": "null", "timezone": "+07:00", "wmo_id": 96807, "station_id": 179 }, "geometry": { "type": "Point", "coordinates": [ 109.7069, -7.333 ] } },
{ "type": "Feature", "properties": { "fid": 5, "station_number": 97692, "station_name": "Stasiun Klimatologi Jayapura", "idrefregency": 460, "type": "mkg", "region": "Region V", "latitude": -2.59231, "longitude": 140.16792, "elevation": 70, "soil": "null", "exposure": "null", "land_use": "null", "timezone": "+09:00", "wmo_id": 97692, "station_id": 175 }, "geometry": { "type": "Point", "coordinates": [ 140.16792, -2.59231 ] } },
{ "type": "Feature", "properties": { "fid": 6, "station_number": 97760, "station_name": "Stasiun Meteorologi Utarom", "idrefregency": 494, "type": "mkg", "region": "Region V", "latitude": -3.67, "longitude": 133.75, "elevation": 5, "soil": "null", "exposure": "null", "land_use": "null", "timezone": "+09:00", "wmo_id": 97760, "station_id": 176 }, "geometry": { "type": "Point", "coordinates": [ 133.75, -3.67 ] } },
{ "type": "Feature", "properties": { "fid": 7, "station_number": 96793, "station_name": "Pos Meteorologi Penggung", "idrefregency": 166, "type": "mkg", "region": "Region II", "latitude": -6.7553, "longitude": 108.53904, "elevation": 23, "soil": "42.00000", "exposure": "22", "land_use": "23", "timezone": "+07:00", "wmo_id": 96793, "station_id": 7744 }, "geometry": { "type": "Point", "coordinates": [ 108.53904, -6.7553 ] } },
{ "type": "Feature", "properties": { "fid": 8, "station_number": 96001, "station_name": "Stasiun Meteorologi Cut Bau Maimun Saleh", "idrefregency": 20, "type": "mkg", "region": "Region I", "latitude": 5.87655, "longitude": 95.33785, "elevation": 126, "soil": "53.00000", "exposure": "21", "land_use": "26", "timezone": "+07:00", "wmo_id": 96001, "station_id": 1 }, "geometry": { "type": "Point", "coordinates": [ 95.33785, 5.87655 ] } },
{ "type": "Feature", "properties": { "fid": 9, "station_number": 96009, "station_name": "Stasiun Meteorologi Malikussaleh", "idrefregency": 8, "type": "mkg", "region": "Region I", "latitude": 5.22869, "longitude": 96.94749, "elevation": 28, "soil": "47.00000", "exposure": "22", "land_use": "28", "timezone": "+07:00", "wmo_id": 96009, "station_id": 2 }, "geometry": { "type": "Point", "coordinates": [ 96.94749, 5.22869 ] } },
{ "type": "Feature", "properties": { "fid": 10, "station_number": 96011, "station_name": "Stasiun Meteorologi Sultan Iskandar Muda", "idrefregency": 6, "type": "mkg", "region": "Region I", "latitude": 5.52244, "longitude": 95.417, "elevation": 20, "soil": "null", "exposure": "null", "land_use": "null", "timezone": "+07:00", "wmo_id": 96011, "station_id": 3 }, "geometry": { "type": "Point", "coordinates": [ 95.417, 5.52244 ] } },
{ "type": "Feature", "properties": { "fid": 11, "station_number": 96525, "station_name": "Stasiun Meteorologi Tanjung Harapan", "idrefregency": 503, "type": "mkg", "region": "Region III", "latitude": 2.5, "longitude": 117.22, "elevation": 3, "soil": "null", "exposure": "null", "land_use": "null", "timezone": "+08:00", "wmo_id": 96525, "station_id": 178 }, "geometry": { "type": "Point", "coordinates": [ 117.22, 2.5 ] } },
{ "type": "Feature", "properties": { "fid": 12, "station_number": 96015, "station_name": "Stasiun Meteorologi Tjut Nyak Dien Meulaboh", "idrefregency": 15, "type": "mkg", "region": "Region I", "latitude": 4.04928, "longitude": 96.24796, "elevation": 3, "soil": "47.00000", "exposure": "21", "land_use": "21", "timezone": "+07:00", "wmo_id": 96015, "station_id": 5 }, "geometry": { "type": "Point", "coordinates": [ 96.24796, 4.04928 ] } },
{ "type": "Feature", "properties": { "fid": 13, "station_number": 96017, "station_name": "Stasiun Klimatologi Aceh Besar", "idrefregency": 6, "type": "mkg", "region": "Region I", "latitude": 5.404, "longitude": 95.464, "elevation": 40, "soil": "50.00000", "exposure": "22", "land_use": "28", "timezone": "+07:00", "wmo_id": 96017, "station_id": 6 }, "geometry": { "type": "Point", "coordinates": [ 95.464, 5.404 ] } },
{ "type": "Feature", "properties": { "fid": 14, "station_number": 96031, "station_name": "Stasiun Klimatologi Deli Serdang", "idrefregency": 30, "type": "mkg", "region": "Region I", "latitude": 3.62114, "longitude": 98.71485, "elevation": 25, "soil": "52.00000", "exposure": "21", "land_use": "23", "timezone": "+07:00", "wmo_id": 96031, "station_id": 7 }, "geometry": { "type": "Point", "coordinates": [ 98.71485, 3.62114 ] } },
{ "type": "Feature", "properties": { "fid": 15, "station_number": 96033, "station_name": "Stasiun Meteorologi Maritim Belawan", "idrefregency": 49, "type": "mkg", "region": "Region I", "latitude": 3.78824, "longitude": 98.71492, "elevation": 3, "soil": "null", "exposure": "null", "land_use": "null", "timezone": "+07:00", "wmo_id": 96033, "station_id": 8 }, "geometry": { "type": "Point", "coordinates": [ 98.71492, 3.78824 ] } },
{ "type": "Feature", "properties": { "fid": 16, "station_number": 96035, "station_name": "Stasiun Meteorologi Kualanamu", "idrefregency": 30, "type": "mkg", "region": "Region I", "latitude": 3.64573, "longitude": 98.88488, "elevation": 23, "soil": "null", "exposure": "22", "land_use": "27", "timezone": "+07:00", "wmo_id": 96035, "station_id": 9 }, "geometry": { "type": "Point", "coordinates": [ 98.88488, 3.64573 ] } },
{ "type": "Feature", "properties": { "fid": 17, "station_number": 96037, "station_name": "Stasiun Geofisika Tuntungan", "idrefregency": 30, "type": "mkg", "region": "Region I", "latitude": 3.501, "longitude": 98.56, "elevation": 86, "soil": "null", "exposure": "null", "land_use": "23", "timezone": "+07:00", "wmo_id": 96037, "station_id": 10 }, "geometry": { "type": "Point", "coordinates": [ 98.56, 3.501 ] } },
{ "type": "Feature", "properties": { "fid": 18, "station_number": 96039, "station_name": "Stasiun Geofisika Tapaktuan Aceh Selatan", "idrefregency": 1, "type": "mkg", "region": "Region I", "latitude": 3.17333, "longitude": 97.28637, "elevation": 2, "soil": "null", "exposure": "null", "land_use": "null", "timezone": "+07:00", "wmo_id": 96039, "station_id": 11 }, "geometry": { "type": "Point", "coordinates": [ 97.28637, 3.17333 ] } },
{ "type": "Feature", "properties": { "fid": 19, "station_number": 96071, "station_name": "Stasiun Meteorologi Aek Godang", "idrefregency": 43, "type": "mkg", "region": "Region I", "latitude": 1.55, "longitude": 99.45, "elevation": 281, "soil": "44.00000", "exposure": "22", "land_use": "23", "timezone": "+07:00", "wmo_id": 96071, "station_id": 12 }, "geometry": { "type": "Point", "coordinates": [ 99.45, 1.55 ] } },
{ "type": "Feature", "properties": { "fid": 20, "station_number": 96073, "station_name": "Stasiun Meteorologi F.L Tobing", "idrefregency": 24, "type": "mkg", "region": "Region I", "latitude": 1.55, "longitude": 98.88, "elevation": 10, "soil": "null", "exposure": "null", "land_use": "null", "timezone": "+07:00", "wmo_id": 96073, "station_id": 13 }, "geometry": { "type": "Point", "coordinates": [ 98.88, 1.55 ] } },
{ "type": "Feature", "properties": { "fid": 21, "station_number": 96075, "station_name": "Stasiun Meteorologi Binaka", "idrefregency": 27, "type": "mkg", "region": "Region I", "latitude": 1.1649, "longitude": 97.7036, "elevation": 7, "soil": "null", "exposure": "null", "land_use": "null", "timezone": "+07:00", "wmo_id": 96075, "station_id": 14 }, "geometry": { "type": "Point", "coordinates": [ 97.7036, 1.1649 ] } },
{ "type": "Feature", "properties": { "fid": 22, "station_number": 96077, "station_name": "Stasiun Geofisika Gunung Sitoli", "idrefregency": 27, "type": "mkg", "region": "Region I", "latitude": 1.3, "longitude": 97.58, "elevation": 175, "soil": "null", "exposure": "null", "land_use": "null", "timezone": "+07:00", "wmo_id": 96077, "station_id": 15 }, "geometry": { "type": "Point", "coordinates": [ 97.58, 1.3 ] } },
{ "type": "Feature", "properties": { "fid": 23, "station_number": 96087, "station_name": "Stasiun Meteorologi Hang Nadim", "idrefregency": 150, "type": "mkg", "region": "Region I", "latitude": 1.11667, "longitude": 104.11667, "elevation": 26, "soil": "null", "exposure": "null", "land_use": "null", "timezone": "+07:00", "wmo_id": 96087, "station_id": 16 }, "geometry": { "type": "Point", "coordinates": [ 104.11667, 1.11667 ] } },
{ "type": "Feature", "properties": { "fid": 24, "station_number": 96089, "station_name": "Stasiun Meteorologi Raja Haji Abdullah Tanjung Balai Karimun", "idrefregency": 146, "type": "mkg", "region": "Region I", "latitude": 1.03, "longitude": 103.38, "elevation": 1, "soil": "44.00000", "exposure": "42", "land_use": "26", "timezone": "+07:00", "wmo_id": 96089, "station_id": 17 }, "geometry": { "type": "Point", "coordinates": [ 103.38, 1.03 ] } },
{ "type": "Feature", "properties": { "fid": 25, "station_number": 96091, "station_name": "Stasiun Meteorologi Kijang", "idrefregency": 151, "type": "mkg", "region": "Region I", "latitude": 0.9227, "longitude": 104.5289, "elevation": 15, "soil": "52.00000", "exposure": "21", "land_use": "26", "timezone": "+07:00", "wmo_id": 96091, "station_id": 18 }, "geometry": { "type": "Point", "coordinates": [ 104.5289, 0.9227 ] } },
{ "type": "Feature", "properties": { "fid": 26, "station_number": 96109, "station_name": "Stasiun Meteorologi Sultan Syarif Kasim II", "idrefregency": 86, "type": "mkg", "region": "Region I", "latitude": 0.45924, "longitude": 101.44743, "elevation": 39, "soil": "43.00000", "exposure": "22", "land_use": "26", "timezone": "+07:00", "wmo_id": 96109, "station_id": 19 }, "geometry": { "type": "Point", "coordinates": [ 101.44743, 0.45924 ] } },
{ "type": "Feature", "properties": { "fid": 27, "station_number": 96145, "station_name": "Stasiun Meteorologi Tarempa", "idrefregency": 149, "type": "mkg", "region": "Region I", "latitude": 3.2, "longitude": 106.25, "elevation": 2, "soil": "52.00000", "exposure": "42", "land_use": "25", "timezone": "+07:00", "wmo_id": 96145, "station_id": 20 }, "geometry": { "type": "Point", "coordinates": [ 106.25, 3.2 ] } },
{ "type": "Feature", "properties": { "fid": 28, "station_number": 96147, "station_name": "Stasiun Meteorologi Ranai", "idrefregency": 147, "type": "mkg", "region": "Region I", "latitude": 3.91206, "longitude": 108.39, "elevation": 2, "soil": "null", "exposure": "null", "land_use": "26", "timezone": "+07:00", "wmo_id": 96147, "station_id": 21 }, "geometry": { "type": "Point", "coordinates": [ 108.39, 3.91206 ] } },
{ "type": "Feature", "properties": { "fid": 29, "station_number": 96161, "station_name": "Stasiun Metorologi Maritim Teluk Bayur", "idrefregency": 69, "type": "mkg", "region": "Region I", "latitude": -0.99639, "longitude": 100.37222, "elevation": 2, "soil": "47.00000", "exposure": "21", "land_use": "28", "timezone": "+07:00", "wmo_id": 96161, "station_id": 22 }, "geometry": { "type": "Point", "coordinates": [ 100.37222, -0.99639 ] } },
{ "type": "Feature", "properties": { "fid": 30, "station_number": 96163, "station_name": "Stasiun Meteorologi Minangkabau", "idrefregency": 61, "type": "mkg", "region": "Region I", "latitude": -0.79355, "longitude": 100.28917, "elevation": 6, "soil": "null", "exposure": "null", "land_use": "null", "timezone": "+07:00", "wmo_id": 96163, "station_id": 23 }, "geometry": { "type": "Point", "coordinates": [ 100.28917, -0.79355 ] } },
{ "type": "Feature", "properties": { "fid": 31, "station_number": 96165, "station_name": "Stasiun Geofisika Silaing Bawah", "idrefregency": 72, "type": "mkg", "region": "Region I", "latitude": -0.4663, "longitude": 100.3797, "elevation": 735, "soil": "47.00000", "exposure": "21", "land_use": "21", "timezone": "+07:00", "wmo_id": 96165, "station_id": 24 }, "geometry": { "type": "Point", "coordinates": [ 100.3797, -0.4663 ] } },
{ "type": "Feature", "properties": { "fid": 32, "station_number": 96167, "station_name": "Stasiun Klimatologi Padang Pariaman", "idrefregency": 61, "type": "mkg", "region": "Region I", "latitude": -0.54549, "longitude": 100.29786, "elevation": 128, "soil": "null", "exposure": "null", "land_use": "null", "timezone": "+07:00", "wmo_id": 96167, "station_id": 25 }, "geometry": { "type": "Point", "coordinates": [ 100.29786, -0.54549 ] } },
{ "type": "Feature", "properties": { "fid": 33, "station_number": 96171, "station_name": "Stasiun Meteorologi Japura", "idrefregency": 77, "type": "mkg", "region": "Region I", "latitude": -0.33, "longitude": 102.32, "elevation": 19, "soil": "43.00000", "exposure": "22", "land_use": "26", "timezone": "+07:00", "wmo_id": 96171, "station_id": 26 }, "geometry": { "type": "Point", "coordinates": [ 102.32, -0.33 ] } },
{ "type": "Feature", "properties": { "fid": 34, "station_number": 96179, "station_name": "Stasiun Meteorologi Dabo Singkep", "idrefregency": 148, "type": "mkg", "region": "Region I", "latitude": -0.48, "longitude": 104.58, "elevation": 29, "soil": "44.00000", "exposure": "42", "land_use": "28", "timezone": "+07:00", "wmo_id": 96179, "station_id": 27 }, "geometry": { "type": "Point", "coordinates": [ 104.58, -0.48 ] } },
{ "type": "Feature", "properties": { "fid": 35, "station_number": 96191, "station_name": "Stasiun Klimatologi Muaro Jambi", "idrefregency": 92, "type": "mkg", "region": "Region II", "latitude": -1.6019, "longitude": 103.48444, "elevation": 24, "soil": "null", "exposure": "null", "land_use": "null", "timezone": "+07:00", "wmo_id": 96191, "station_id": 28 }, "geometry": { "type": "Point", "coordinates": [ 103.48444, -1.6019 ] } },
{ "type": "Feature", "properties": { "fid": 36, "station_number": 96195, "station_name": "Stasiun Meteorologi Sultan Thaha", "idrefregency": 97, "type": "mkg", "region": "Region II", "latitude": -1.63368, "longitude": 103.64, "elevation": 26, "soil": "null", "exposure": "22", "land_use": "28", "timezone": "+07:00", "wmo_id": 96195, "station_id": 29 }, "geometry": { "type": "Point", "coordinates": [ 103.64, -1.63368 ] } },
{ "type": "Feature", "properties": { "fid": 37, "station_number": 96169, "station_name": "Stasiun Pemantau Atmosfer Global Bukit Koto Tabang", "idrefregency": 62, "type": "mkg", "region": "Region I", "latitude": -0.2505, "longitude": 100.3823, "elevation": 895, "soil": "51.00000", "exposure": "41", "land_use": "25", "timezone": "+07:00", "wmo_id": 96169, "station_id": 30 }, "geometry": { "type": "Point", "coordinates": [ 100.3823, -0.2505 ] } },
{ "type": "Feature", "properties": { "fid": 38, "station_number": 96207, "station_name": "Stasiun Meteorologi Depati Parbo", "idrefregency": 88, "type": "mkg", "region": "Region II", "latitude": -2.083, "longitude": 101.45, "elevation": 782, "soil": "47.00000", "exposure": "22", "land_use": "22", "timezone": "+07:00", "wmo_id": 96207, "station_id": 31 }, "geometry": { "type": "Point", "coordinates": [ 101.45, -2.083 ] } },
{ "type": "Feature", "properties": { "fid": 39, "station_number": 96221, "station_name": "Stasiun Meteorologi Sultan Mahmud Badaruddin II", "idrefregency": 110, "type": "mkg", "region": "Region II", "latitude": -2.89468, "longitude": 104.70129, "elevation": 10, "soil": "41.00000", "exposure": "21", "land_use": "26", "timezone": "+07:00", "wmo_id": 96221, "station_id": 32 }, "geometry": { "type": "Point", "coordinates": [ 104.70129, -2.89468 ] } },
{ "type": "Feature", "properties": { "fid": 40, "station_number": 96223, "station_name": "Stasiun Klimatologi Palembang", "idrefregency": 110, "type": "mkg", "region": "Region II", "latitude": -2.92732, "longitude": 104.77197, "elevation": 11, "soil": "52.00000", "exposure": "22", "land_use": "21", "timezone": "+07:00", "wmo_id": 96223, "station_id": 33 }, "geometry": { "type": "Point", "coordinates": [ 104.77197, -2.92732 ] } },
{ "type": "Feature", "properties": { "fid": 41, "station_number": 96237, "station_name": "Stasiun Meteorologi Depati Amir", "idrefregency": 144, "type": "mkg", "region": "Region II", "latitude": -2.17, "longitude": 106.13, "elevation": 0, "soil": "null", "exposure": "null", "land_use": "21", "timezone": "+07:00", "wmo_id": 96237, "station_id": 34 }, "geometry": { "type": "Point", "coordinates": [ 106.13, -2.17 ] } },
{ "type": "Feature", "properties": { "fid": 42, "station_number": 96247, "station_name": "Stasiun Geofisika Tanjung Pandan", "idrefregency": 139, "type": "mkg", "region": "Region II", "latitude": -2.7575, "longitude": 107.65, "elevation": 22, "soil": "null", "exposure": "null", "land_use": "null", "timezone": "+07:00", "wmo_id": 96247, "station_id": 35 }, "geometry": { "type": "Point", "coordinates": [ 107.65, -2.7575 ] } },
{ "type": "Feature", "properties": { "fid": 43, "station_number": 96249, "station_name": "Stasiun Meteorologi H. Asan Hananjoedin", "idrefregency": 139, "type": "mkg", "region": "Region II", "latitude": -2.75, "longitude": 107.75, "elevation": 50, "soil": "null", "exposure": "null", "land_use": "null", "timezone": "+07:00", "wmo_id": 96249, "station_id": 36 }, "geometry": { "type": "Point", "coordinates": [ 107.75, -2.75 ] } },
{ "type": "Feature", "properties": { "fid": 44, "station_number": 96253, "station_name": "Stasiun Meteorologi Fatmawati Soekarno", "idrefregency": 123, "type": "mkg", "region": "Region II", "latitude": -3.8582, "longitude": 102.3367, "elevation": 24, "soil": "null", "exposure": "null", "land_use": "null", "timezone": "+07:00", "wmo_id": 96253, "station_id": 37 }, "geometry": { "type": "Point", "coordinates": [ 102.3367, -3.8582 ] } },
{ "type": "Feature", "properties": { "fid": 45, "station_number": 96255, "station_name": "Stasiun Klimatologi Bengkulu", "idrefregency": 123, "type": "mkg", "region": "Region II", "latitude": -3.8652, "longitude": 102.3119, "elevation": 12, "soil": "null", "exposure": "null", "land_use": "null", "timezone": "+07:00", "wmo_id": 96255, "station_id": 38 }, "geometry": { "type": "Point", "coordinates": [ 102.3119, -3.8652 ] } },
{ "type": "Feature", "properties": { "fid": 46, "station_number": 96257, "station_name": "Stasiun Geofisika Kepahiyang", "idrefregency": 121, "type": "mkg", "region": "Region II", "latitude": -3.55, "longitude": 102.589, "elevation": 517, "soil": "null", "exposure": "null", "land_use": "null", "timezone": "+07:00", "wmo_id": 96257, "station_id": 39 }, "geometry": { "type": "Point", "coordinates": [ 102.589, -3.55 ] } },
{ "type": "Feature", "properties": { "fid": 47, "station_number": 96291, "station_name": "Stasiun Klimatologi Pesawaran", "idrefregency": 132, "type": "mkg", "region": "Region II", "latitude": -5.17236, "longitude": 105.18, "elevation": 71, "soil": "null", "exposure": "2", "land_use": "23", "timezone": "+07:00", "wmo_id": 96291, "station_id": 40 }, "geometry": { "type": "Point", "coordinates": [ 105.18, -5.17236 ] } },
{ "type": "Feature", "properties": { "fid": 48, "station_number": 96293, "station_name": "Stasiun Meteorologi Maritim Lampung", "idrefregency": 136, "type": "mkg", "region": "Region II", "latitude": -5.4721, "longitude": 105.321, "elevation": 7, "soil": "51.00000", "exposure": "45", "land_use": "21", "timezone": "+07:00", "wmo_id": 96293, "station_id": 41 }, "geometry": { "type": "Point", "coordinates": [ 105.321, -5.4721 ] } },
{ "type": "Feature", "properties": { "fid": 49, "station_number": 96295, "station_name": "Stasiun Meteorologi Radin Inten II", "idrefregency": 124, "type": "mkg", "region": "Region II", "latitude": -5.16, "longitude": 105.11, "elevation": 85, "soil": "null", "exposure": "null", "land_use": "null", "timezone": "+07:00", "wmo_id": 96295, "station_id": 42 }, "geometry": { "type": "Point", "coordinates": [ 105.11, -5.16 ] } },
{ "type": "Feature", "properties": { "fid": 50, "station_number": 96297, "station_name": "Stasiun Geofisika Kota Bumi", "idrefregency": 126, "type": "mkg", "region": "Region II", "latitude": -4.83631, "longitude": 104.87, "elevation": 60, "soil": "52.00000", "exposure": "22", "land_use": "21", "timezone": "+07:00", "wmo_id": 96297, "station_id": 43 }, "geometry": { "type": "Point", "coordinates": [ 104.87, -4.83631 ] } },
{ "type": "Feature", "properties": { "fid": 51, "station_number": 96505, "station_name": "Stasiun Meteorologi Yuvai Semaring", "idrefregency": 505, "type": "mkg", "region": "Region III", "latitude": 3.86, "longitude": 115.68, "elevation": 1090, "soil": "44.00000", "exposure": "22", "land_use": "26", "timezone": "+08:00", "wmo_id": 96505, "station_id": 44 }, "geometry": { "type": "Point", "coordinates": [ 115.68, 3.86 ] } },
{ "type": "Feature", "properties": { "fid": 52, "station_number": 96503, "station_name": "Stasiun Meteorologi Nunukan", "idrefregency": 505, "type": "mkg", "region": "Region III", "latitude": 4.13, "longitude": 117.67, "elevation": 8, "soil": "null", "exposure": "null", "land_use": "null", "timezone": "+08:00", "wmo_id": 96503, "station_id": 45 }, "geometry": { "type": "Point", "coordinates": [ 117.67, 4.13 ] } },
{ "type": "Feature", "properties": { "fid": 53, "station_number": 96509, "station_name": "Stasiun Meteorologi Juwata", "idrefregency": 507, "type": "mkg", "region": "Region III", "latitude": 3.33, "longitude": 117.57, "elevation": 6, "soil": "null", "exposure": "null", "land_use": "null", "timezone": "+08:00", "wmo_id": 96509, "station_id": 46 }, "geometry": { "type": "Point", "coordinates": [ 117.57, 3.33 ] } },
{ "type": "Feature", "properties": { "fid": 54, "station_number": 96529, "station_name": "Stasiun Meteorologi Kalimarau ", "idrefregency": 353, "type": "mkg", "region": "Region III", "latitude": 2.14562, "longitude": 117.43375, "elevation": 13, "soil": "43.00000", "exposure": "47", "land_use": "23", "timezone": "+08:00", "wmo_id": 96529, "station_id": 47 }, "geometry": { "type": "Point", "coordinates": [ 117.43375, 2.14562 ] } },
{ "type": "Feature", "properties": { "fid": 55, "station_number": 96535, "station_name": "Stasiun Meteorologi Paloh", "idrefregency": 310, "type": "mkg", "region": "Region II", "latitude": 1.74, "longitude": 109.3, "elevation": 15, "soil": "null", "exposure": "null", "land_use": "23", "timezone": "+07:00", "wmo_id": 96535, "station_id": 48 }, "geometry": { "type": "Point", "coordinates": [ 109.3, 1.74 ] } },
{ "type": "Feature", "properties": { "fid": 56, "station_number": 96557, "station_name": "Stasiun Meteorologi Nangapinoh", "idrefregency": 319, "type": "mkg", "region": "Region II", "latitude": -0.42, "longitude": 111.47, "elevation": 40, "soil": "43.00000", "exposure": "21", "land_use": "27", "timezone": "+07:00", "wmo_id": 96557, "station_id": 49 }, "geometry": { "type": "Point", "coordinates": [ 111.47, -0.42 ] } },
{ "type": "Feature", "properties": { "fid": 57, "station_number": 96559, "station_name": "Stasiun Meteorologi Susilo", "idrefregency": 314, "type": "mkg", "region": "Region II", "latitude": 0.06, "longitude": 111.47, "elevation": 31, "soil": "43.00000", "exposure": "2", "land_use": "23", "timezone": "+07:00", "wmo_id": 96559, "station_id": 50 }, "geometry": { "type": "Point", "coordinates": [ 111.47, 0.06 ] } },
{ "type": "Feature", "properties": { "fid": 58, "station_number": 96565, "station_name": "Stasiun Meteorologi Pangsuma", "idrefregency": 315, "type": "mkg", "region": "Region II", "latitude": 0.84, "longitude": 112.93, "elevation": 43, "soil": "null", "exposure": "22", "land_use": "21", "timezone": "+07:00", "wmo_id": 96565, "station_id": 51 }, "geometry": { "type": "Point", "coordinates": [ 112.93, 0.84 ] } },
{ "type": "Feature", "properties": { "fid": 59, "station_number": 96581, "station_name": "Stasiun Meteorologi Supadio", "idrefregency": 322, "type": "mkg", "region": "Region II", "latitude": -0.14206, "longitude": 109.45, "elevation": 3, "soil": "null", "exposure": "22", "land_use": "22", "timezone": "+07:00", "wmo_id": 96581, "station_id": 52 }, "geometry": { "type": "Point", "coordinates": [ 109.45, -0.14206 ] } },
{ "type": "Feature", "properties": { "fid": 60, "station_number": 96583, "station_name": "Stasiun Klimatologi Mempawah", "idrefregency": 311, "type": "mkg", "region": "Region II", "latitude": 0.075, "longitude": 109.19, "elevation": 2, "soil": "52.00000", "exposure": "22", "land_use": "22", "timezone": "+07:00", "wmo_id": 96583, "station_id": 53 }, "geometry": { "type": "Point", "coordinates": [ 109.19, 0.075 ] } },
{ "type": "Feature", "properties": { "fid": 61, "station_number": 96595, "station_name": "Stasiun Meteorologi Beringin", "idrefregency": 328, "type": "mkg", "region": "Region III", "latitude": -0.56, "longitude": 114.53, "elevation": 42, "soil": "43.00000", "exposure": "47", "land_use": "26", "timezone": "+07:00", "wmo_id": 96595, "station_id": 54 }, "geometry": { "type": "Point", "coordinates": [ 114.53, -0.56 ] } },
{ "type": "Feature", "properties": { "fid": 62, "station_number": 96607, "station_name": "Stasiun Meteorologi Temindung", "idrefregency": 362, "type": "mkg", "region": "Region III", "latitude": -0.48, "longitude": 117.16, "elevation": 10, "soil": "null", "exposure": "null", "land_use": "null", "timezone": "+08:00", "wmo_id": 96607, "station_id": 55 }, "geometry": { "type": "Point", "coordinates": [ 117.16, -0.48 ] } },
{ "type": "Feature", "properties": { "fid": 63, "station_number": 96615, "station_name": "Stasiun Meteorologi Rahadi Oesman", "idrefregency": 313, "type": "mkg", "region": "Region II", "latitude": -1.8, "longitude": 109.97, "elevation": 9, "soil": "null", "exposure": "null", "land_use": "22", "timezone": "+07:00", "wmo_id": 96615, "station_id": 56 }, "geometry": { "type": "Point", "coordinates": [ 109.97, -1.8 ] } },
{ "type": "Feature", "properties": { "fid": 64, "station_number": 96633, "station_name": "Stasiun Meteorologi Sultan Aji Muhammad Sulaiman Sepinggan", "idrefregency": 361, "type": "mkg", "region": "Region III", "latitude": -1.26, "longitude": 116.9, "elevation": 3, "soil": "null", "exposure": "null", "land_use": "null", "timezone": "+08:00", "wmo_id": 96633, "station_id": 57 }, "geometry": { "type": "Point", "coordinates": [ 116.9, -1.26 ] } },
{ "type": "Feature", "properties": { "fid": 65, "station_number": 96635, "station_name": "Stasiun Geofisika Balikpapan", "idrefregency": 361, "type": "mkg", "region": "Region III", "latitude": -1.2553, "longitude": 116.91463, "elevation": 31, "soil": "43.00000", "exposure": "22", "land_use": "21", "timezone": "+08:00", "wmo_id": 96635, "station_id": 58 }, "geometry": { "type": "Point", "coordinates": [ 116.91463, -1.2553 ] } },
{ "type": "Feature", "properties": { "fid": 66, "station_number": 96645, "station_name": "Stasiun Meteorologi Iskandar", "idrefregency": 324, "type": "mkg", "region": "Region III", "latitude": -2.73, "longitude": 111.66, "elevation": 22, "soil": "50.00000", "exposure": "22", "land_use": "25", "timezone": "+07:00", "wmo_id": 96645, "station_id": 59 }, "geometry": { "type": "Point", "coordinates": [ 111.66, -2.73 ] } },
{ "type": "Feature", "properties": { "fid": 67, "station_number": 96651, "station_name": "Stasiun Meteorologi H. Asan", "idrefregency": 325, "type": "mkg", "region": "Region III", "latitude": -2.55, "longitude": 112.93, "elevation": 3, "soil": "null", "exposure": "null", "land_use": "null", "timezone": "+07:00", "wmo_id": 96651, "station_id": 60 }, "geometry": { "type": "Point", "coordinates": [ 112.93, -2.55 ] } },
{ "type": "Feature", "properties": { "fid": 68, "station_number": 96653, "station_name": "Stasiun Meteorologi Sanggu", "idrefregency": 327, "type": "mkg", "region": "Region III", "latitude": -1.67, "longitude": 114.9, "elevation": 37, "soil": "null", "exposure": "null", "land_use": "null", "timezone": "+07:00", "wmo_id": 96653, "station_id": 61 }, "geometry": { "type": "Point", "coordinates": [ 114.9, -1.67 ] } },
{ "type": "Feature", "properties": { "fid": 69, "station_number": 96655, "station_name": "Stasiun Meteorologi Tjilik Riwut", "idrefregency": 337, "type": "mkg", "region": "Region III", "latitude": -2.22, "longitude": 113.95, "elevation": 27, "soil": "null", "exposure": "null", "land_use": "null", "timezone": "+08:00", "wmo_id": 96655, "station_id": 62 }, "geometry": { "type": "Point", "coordinates": [ 113.95, -2.22 ] } },
{ "type": "Feature", "properties": { "fid": 70, "station_number": 96685, "station_name": "Stasiun Meteorologi Syamsudin Noor", "idrefregency": 349, "type": "mkg", "region": "Region III", "latitude": -3.442, "longitude": 114.754, "elevation": 32, "soil": "53.00000", "exposure": "22", "land_use": "21", "timezone": "+08:00", "wmo_id": 96685, "station_id": 63 }, "geometry": { "type": "Point", "coordinates": [ 114.754, -3.442 ] } },
{ "type": "Feature", "properties": { "fid": 71, "station_number": 96687, "station_name": "Stasiun Klimatologi Banjar Baru", "idrefregency": 350, "type": "mkg", "region": "Region III", "latitude": -3.46225, "longitude": 114.84, "elevation": 55, "soil": "43.00000", "exposure": "22", "land_use": "21", "timezone": "+08:00", "wmo_id": 96687, "station_id": 64 }, "geometry": { "type": "Point", "coordinates": [ 114.84, -3.46225 ] } },
{ "type": "Feature", "properties": { "fid": 72, "station_number": 96695, "station_name": "Stasiun Meteorologi Gusti Syamsir Alam", "idrefregency": 339, "type": "mkg", "region": "Region III", "latitude": -3.3, "longitude": 116.17, "elevation": 2, "soil": "53.00000", "exposure": "22", "land_use": "26", "timezone": "+08:00", "wmo_id": 96695, "station_id": 65 }, "geometry": { "type": "Point", "coordinates": [ 116.17, -3.3 ] } },
{ "type": "Feature", "properties": { "fid": 73, "station_number": 96733, "station_name": "Stasiun Klimatologi Tangerang Selatan", "idrefregency": 269, "type": "mkg", "region": "Region II", "latitude": -6.26151, "longitude": 106.75084, "elevation": 27, "soil": "53.00000", "exposure": "48", "land_use": "21", "timezone": "+07:00", "wmo_id": 96733, "station_id": 66 }, "geometry": { "type": "Point", "coordinates": [ 106.75084, -6.26151 ] } },
{ "type": "Feature", "properties": { "fid": 74, "station_number": 96735, "station_name": "Stasiun Geofisika Tangerang", "idrefregency": 266, "type": "mkg", "region": "Region II", "latitude": -6.1, "longitude": 106.38, "elevation": 14, "soil": "47.00000", "exposure": "22", "land_use": "23", "timezone": "+07:00", "wmo_id": 96735, "station_id": 67 }, "geometry": { "type": "Point", "coordinates": [ 106.38, -6.1 ] } },
{ "type": "Feature", "properties": { "fid": 75, "station_number": 96737, "station_name": "Stasiun Meteorologi Serang", "idrefregency": 268, "type": "mkg", "region": "Region II", "latitude": -6.11185, "longitude": 106.11, "elevation": 100, "soil": "null", "exposure": "null", "land_use": "null", "timezone": "+07:00", "wmo_id": 96737, "station_id": 68 }, "geometry": { "type": "Point", "coordinates": [ 106.11, -6.11185 ] } },
{ "type": "Feature", "properties": { "fid": 76, "station_number": 96739, "station_name": "Stasiun Meteorologi Budiarto", "idrefregency": 264, "type": "mkg", "region": "Region II", "latitude": -6.2867, "longitude": 106.56389, "elevation": 42, "soil": "null", "exposure": "null", "land_use": "null", "timezone": "+07:00", "wmo_id": 96739, "station_id": 69 }, "geometry": { "type": "Point", "coordinates": [ 106.56389, -6.2867 ] } },
{ "type": "Feature", "properties": { "fid": 77, "station_number": 96741, "station_name": "Stasiun Meteorologi Maritim Tanjung Priok", "idrefregency": 154, "type": "mkg", "region": "Region II", "latitude": -6.10781, "longitude": 106.88053, "elevation": 3, "soil": "null", "exposure": "null", "land_use": "null", "timezone": "+07:00", "wmo_id": 96741, "station_id": 70 }, "geometry": { "type": "Point", "coordinates": [ 106.88053, -6.10781 ] } },
{ "type": "Feature", "properties": { "fid": 78, "station_number": 96743, "station_name": "Stasiun Geofisika Gorontalo", "idrefregency": 429, "type": "mkg", "region": "Region IV", "latitude": 0.55588, "longitude": 123.1406, "elevation": 4, "soil": "null", "exposure": "null", "land_use": "null", "timezone": "+08:00", "wmo_id": 96743, "station_id": 71 }, "geometry": { "type": "Point", "coordinates": [ 123.1406, 0.55588 ] } },
{ "type": "Feature", "properties": { "fid": 79, "station_number": 96745, "station_name": "Stasiun Meteorologi Kemayoran", "idrefregency": 153, "type": "mkg", "region": "Region II", "latitude": -6.15559, "longitude": 106.84, "elevation": 4, "soil": "53.00000", "exposure": "49", "land_use": "21", "timezone": "+07:00", "wmo_id": 96745, "station_id": 72 }, "geometry": { "type": "Point", "coordinates": [ 106.84, -6.15559 ] } },
{ "type": "Feature", "properties": { "fid": 80, "station_number": 96749, "station_name": "Stasiun Meteorologi Soekarno Hatta", "idrefregency": 266, "type": "mkg", "region": "Region II", "latitude": -6.12, "longitude": 106.65, "elevation": 11, "soil": "null", "exposure": "null", "land_use": "null", "timezone": "+07:00", "wmo_id": 96749, "station_id": 73 }, "geometry": { "type": "Point", "coordinates": [ 106.65, -6.12 ] } },
{ "type": "Feature", "properties": { "fid": 81, "station_number": 96751, "station_name": "Stasiun Meteorologi Citeko", "idrefregency": 158, "type": "mkg", "region": "Region II", "latitude": -6.7, "longitude": 106.85, "elevation": 920, "soil": "null", "exposure": "null", "land_use": "null", "timezone": "+07:00", "wmo_id": 96751, "station_id": 74 }, "geometry": { "type": "Point", "coordinates": [ 106.85, -6.7 ] } },
{ "type": "Feature", "properties": { "fid": 82, "station_number": 96753, "station_name": "Stasiun Klimatologi Bogor", "idrefregency": 175, "type": "mkg", "region": "Region II", "latitude": -6.5, "longitude": 106.75, "elevation": 207, "soil": "null", "exposure": "null", "land_use": "null", "timezone": "+07:00", "wmo_id": 96753, "station_id": 75 }, "geometry": { "type": "Point", "coordinates": [ 106.75, -6.5 ] } },
{ "type": "Feature", "properties": { "fid": 83, "station_number": 96783, "station_name": "Stasiun Geofisika Bandung", "idrefregency": 177, "type": "mkg", "region": "Region II", "latitude": -6.88356, "longitude": 107.59733, "elevation": 791, "soil": "null", "exposure": "null", "land_use": "null", "timezone": "+07:00", "wmo_id": 96783, "station_id": 76 }, "geometry": { "type": "Point", "coordinates": [ 107.59733, -6.88356 ] } },
{ "type": "Feature", "properties": { "fid": 84, "station_number": 96791, "station_name": "Stasiun Meteorologi Jatiwangi", "idrefregency": 167, "type": "mkg", "region": "Region II", "latitude": -6.7344, "longitude": 108.263, "elevation": 85, "soil": "42.00000", "exposure": "21", "land_use": "21", "timezone": "+07:00", "wmo_id": 96791, "station_id": 77 }, "geometry": { "type": "Point", "coordinates": [ 108.263, -6.7344 ] } },
{ "type": "Feature", "properties": { "fid": 85, "station_number": 96797, "station_name": "Stasiun Meteorologi Tegal", "idrefregency": 211, "type": "mkg", "region": "Region II", "latitude": -6.86817, "longitude": 109.12103, "elevation": 1, "soil": "53.00000", "exposure": "42", "land_use": "21", "timezone": "+07:00", "wmo_id": 96797, "station_id": 78 }, "geometry": { "type": "Point", "coordinates": [ 109.12103, -6.86817 ] } },
{ "type": "Feature", "properties": { "fid": 86, "station_number": 96805, "station_name": "Stasiun Meteorologi Cilacap", "idrefregency": 184, "type": "mkg", "region": "Region II", "latitude": -7.7189, "longitude": 109.0149, "elevation": 8, "soil": "null", "exposure": "null", "land_use": "null", "timezone": "+07:00", "wmo_id": 96805, "station_id": 79 }, "geometry": { "type": "Point", "coordinates": [ 109.0149, -7.7189 ] } },
{ "type": "Feature", "properties": { "fid": 87, "station_number": 96835, "station_name": "Stasiun Klimatologi Semarang", "idrefregency": 216, "type": "mkg", "region": "Region II", "latitude": -6.9847, "longitude": 110.3812, "elevation": 6, "soil": "47.00000", "exposure": "22", "land_use": "22", "timezone": "+07:00", "wmo_id": 96835, "station_id": 80 }, "geometry": { "type": "Point", "coordinates": [ 110.3812, -6.9847 ] } },
{ "type": "Feature", "properties": { "fid": 88, "station_number": 96837, "station_name": "Stasiun Meteorologi Maritim Tanjung Mas", "idrefregency": 216, "type": "mkg", "region": "Region II", "latitude": -6.9486, "longitude": 110.4199, "elevation": 2, "soil": "null", "exposure": "null", "land_use": "null", "timezone": "+07:00", "wmo_id": 96837, "station_id": 81 }, "geometry": { "type": "Point", "coordinates": [ 110.4199, -6.9486 ] } },
{ "type": "Feature", "properties": { "fid": 89, "station_number": 96839, "station_name": "Stasiun Meteorologi Ahmad Yani", "idrefregency": 216, "type": "mkg", "region": "Region II", "latitude": -6.97683, "longitude": 110.3778, "elevation": 5, "soil": "null", "exposure": "null", "land_use": "null", "timezone": "+07:00", "wmo_id": 96839, "station_id": 82 }, "geometry": { "type": "Point", "coordinates": [ 110.3778, -6.97683 ] } },
{ "type": "Feature", "properties": { "fid": 90, "station_number": 96855, "station_name": "Stasiun Geofisika Yogyakarta", "idrefregency": 222, "type": "mkg", "region": "Region II", "latitude": -7.82, "longitude": 110.3, "elevation": 153, "soil": "null", "exposure": "null", "land_use": "null", "timezone": "+07:00", "wmo_id": 96855, "station_id": 83 }, "geometry": { "type": "Point", "coordinates": [ 110.3, -7.82 ] } },
{ "type": "Feature", "properties": { "fid": 91, "station_number": 96925, "station_name": "Stasiun Meteorologi Sangkapura", "idrefregency": 248, "type": "mkg", "region": "Region III", "latitude": -5.8511, "longitude": 112.6578, "elevation": 3, "soil": "47.00000", "exposure": "22", "land_use": "21", "timezone": "+07:00", "wmo_id": 96925, "station_id": 84 }, "geometry": { "type": "Point", "coordinates": [ 112.6578, -5.8511 ] } },
{ "type": "Feature", "properties": { "fid": 92, "station_number": 96933, "station_name": "Stasiun Meteorologi Perak I", "idrefregency": 260, "type": "mkg", "region": "Region III", "latitude": -7.2236, "longitude": 112.7239, "elevation": 3, "soil": "47.00000", "exposure": "45", "land_use": "28", "timezone": "+07:00", "wmo_id": 96933, "station_id": 85 }, "geometry": { "type": "Point", "coordinates": [ 112.7239, -7.2236 ] } },
{ "type": "Feature", "properties": { "fid": 93, "station_number": 96935, "station_name": "Stasiun Meteorologi Juanda", "idrefregency": 238, "type": "mkg", "region": "Region III", "latitude": -7.3846, "longitude": 112.7833, "elevation": 3, "soil": "47.00000", "exposure": "null", "land_use": "null", "timezone": "+07:00", "wmo_id": 96935, "station_id": 86 }, "geometry": { "type": "Point", "coordinates": [ 112.7833, -7.3846 ] } },
{ "type": "Feature", "properties": { "fid": 94, "station_number": 96937, "station_name": "Stasiun Meteorologi Maritim Perak II", "idrefregency": 260, "type": "mkg", "region": "Region III", "latitude": -7.2053, "longitude": 112.7353, "elevation": 3, "soil": "48.00000", "exposure": "49", "land_use": "28", "timezone": "+07:00", "wmo_id": 96937, "station_id": 87 }, "geometry": { "type": "Point", "coordinates": [ 112.7353, -7.2053 ] } },
{ "type": "Feature", "properties": { "fid": 95, "station_number": 96943, "station_name": "Stasiun Klimatologi Malang", "idrefregency": 230, "type": "mkg", "region": "Region III", "latitude": -7.9008, "longitude": 112.5979, "elevation": 590, "soil": "52.00000", "exposure": "22", "land_use": "22", "timezone": "+07:00", "wmo_id": 96943, "station_id": 88 }, "geometry": { "type": "Point", "coordinates": [ 112.5979, -7.9008 ] } },
{ "type": "Feature", "properties": { "fid": 96, "station_number": 96945, "station_name": "Stasiun Geofisika Tretes", "idrefregency": 237, "type": "mkg", "region": "Region III", "latitude": -7.70456, "longitude": 112.63533, "elevation": 832, "soil": "null", "exposure": "null", "land_use": "null", "timezone": "+07:00", "wmo_id": 96945, "station_id": 89 }, "geometry": { "type": "Point", "coordinates": [ 112.63533, -7.70456 ] } },
{ "type": "Feature", "properties": { "fid": 97, "station_number": 96949, "station_name": "Stasiun Geofisika Karang Kates", "idrefregency": 230, "type": "mkg", "region": "Region III", "latitude": -8.15, "longitude": 112.45, "elevation": 285, "soil": "52.00000", "exposure": "41", "land_use": "23", "timezone": "+07:00", "wmo_id": 96949, "station_id": 90 }, "geometry": { "type": "Point", "coordinates": [ 112.45, -8.15 ] } },
{ "type": "Feature", "properties": { "fid": 98, "station_number": 96973, "station_name": "Stasiun Meteorologi Kalianget", "idrefregency": 252, "type": "mkg", "region": "Region III", "latitude": -7.05, "longitude": 113.97, "elevation": 0, "soil": "null", "exposure": "null", "land_use": "null", "timezone": "+07:00", "wmo_id": 96973, "station_id": 91 }, "geometry": { "type": "Point", "coordinates": [ 113.97, -7.05 ] } },
{ "type": "Feature", "properties": { "fid": 99, "station_number": 96975, "station_name": "Stasiun Geofisika Sawahan", "idrefregency": 241, "type": "mkg", "region": "Region III", "latitude": -7.73486, "longitude": 111.76682, "elevation": 723, "soil": "null", "exposure": "null", "land_use": "null", "timezone": "+07:00", "wmo_id": 96975, "station_id": 92 }, "geometry": { "type": "Point", "coordinates": [ 111.76682, -7.73486 ] } },
{ "type": "Feature", "properties": { "fid": 100, "station_number": 96987, "station_name": "Stasiun Meteorologi Banyuwangi", "idrefregency": 233, "type": "mkg", "region": "Region III", "latitude": -8.215, "longitude": 114.3553, "elevation": 52, "soil": "null", "exposure": "null", "land_use": "null", "timezone": "+07:00", "wmo_id": 96987, "station_id": 93 }, "geometry": { "type": "Point", "coordinates": [ 114.3553, -8.215 ] } },
{ "type": "Feature", "properties": { "fid": 101, "station_number": 97008, "station_name": "Stasiun Meteorologi Naha", "idrefregency": 367, "type": "mkg", "region": "Region IV", "latitude": 3.68594, "longitude": 125.52881, "elevation": 6, "soil": "null", "exposure": "null", "land_use": "null", "timezone": "+08:00", "wmo_id": 97008, "station_id": 94 }, "geometry": { "type": "Point", "coordinates": [ 125.52881, 3.68594 ] } },
{ "type": "Feature", "properties": { "fid": 102, "station_number": 97012, "station_name": "Stasiun Klimatologi Minahasa Utara", "idrefregency": 370, "type": "mkg", "region": "Region IV", "latitude": 1.54585, "longitude": 124.9233, "elevation": 84, "soil": "null", "exposure": "null", "land_use": "null", "timezone": "+08:00", "wmo_id": 97012, "station_id": 95 }, "geometry": { "type": "Point", "coordinates": [ 124.9233, 1.54585 ] } },
{ "type": "Feature", "properties": { "fid": 103, "station_number": 97014, "station_name": "Stasiun Meteorologi Sam Ratulangi", "idrefregency": 376, "type": "mkg", "region": "Region IV", "latitude": 1.54575, "longitude": 124.9234, "elevation": 80, "soil": "52.00000", "exposure": "49", "land_use": "23", "timezone": "+08:00", "wmo_id": 97014, "station_id": 96 }, "geometry": { "type": "Point", "coordinates": [ 124.9234, 1.54575 ] } },
{ "type": "Feature", "properties": { "fid": 104, "station_number": 97016, "station_name": "Stasiun Meteorologi Maritim Bitung", "idrefregency": 377, "type": "mkg", "region": "Region IV", "latitude": 1.4431, "longitude": 125.1797, "elevation": 4, "soil": "53.00000", "exposure": "22", "land_use": "21", "timezone": "+08:00", "wmo_id": 97016, "station_id": 97 }, "geometry": { "type": "Point", "coordinates": [ 125.1797, 1.4431 ] } },
{ "type": "Feature", "properties": { "fid": 105, "station_number": 97028, "station_name": "Stasiun Meteorologi Sultan Bantilan", "idrefregency": 383, "type": "mkg", "region": "Region IV", "latitude": 1.12114, "longitude": 120.79433, "elevation": 8, "soil": "null", "exposure": "null", "land_use": "null", "timezone": "+08:00", "wmo_id": 97028, "station_id": 98 }, "geometry": { "type": "Point", "coordinates": [ 120.79433, 1.12114 ] } },
{ "type": "Feature", "properties": { "fid": 106, "station_number": 97048, "station_name": "Stasiun Meteorologi Djalaluddin", "idrefregency": 427, "type": "mkg", "region": "Region IV", "latitude": 0.6385, "longitude": 122.8525, "elevation": 33, "soil": "52.00000", "exposure": "22", "land_use": "21", "timezone": "+08:00", "wmo_id": 97048, "station_id": 99 }, "geometry": { "type": "Point", "coordinates": [ 122.8525, 0.6385 ] } },
{ "type": "Feature", "properties": { "fid": 107, "station_number": 97072, "station_name": "Stasiun Meteorologi Mutiara Sis-Al Jufri", "idrefregency": 390, "type": "mkg", "region": "Region IV", "latitude": -0.91589, "longitude": 119.90554, "elevation": 79, "soil": "41.00000", "exposure": "22", "land_use": "26", "timezone": "+08:00", "wmo_id": 97072, "station_id": 100 }, "geometry": { "type": "Point", "coordinates": [ 119.90554, -0.91589 ] } },
{ "type": "Feature", "properties": { "fid": 108, "station_number": 97074, "station_name": "Stasiun Geofisika Palu", "idrefregency": 390, "type": "mkg", "region": "Region IV", "latitude": -0.90536, "longitude": 119.8367, "elevation": 75, "soil": "52.00000", "exposure": "42", "land_use": "21", "timezone": "+08:00", "wmo_id": 97074, "station_id": 101 }, "geometry": { "type": "Point", "coordinates": [ 119.8367, -0.90536 ] } },
{ "type": "Feature", "properties": { "fid": 109, "station_number": 97086, "station_name": "Stasiun Meteorologi Syukuran Aminudin Amir Luwuk", "idrefregency": 380, "type": "mkg", "region": "Region IV", "latitude": -1.04064, "longitude": 122.771, "elevation": 19, "soil": "53.00000", "exposure": "45", "land_use": "21", "timezone": "+08:00", "wmo_id": 97086, "station_id": 102 }, "geometry": { "type": "Point", "coordinates": [ 122.771, -1.04064 ] } },
{ "type": "Feature", "properties": { "fid": 110, "station_number": 97096, "station_name": "Stasiun Meteorologi Kasiguncu", "idrefregency": 381, "type": "mkg", "region": "Region IV", "latitude": -1.42038, "longitude": 120.65701, "elevation": 10, "soil": "null", "exposure": "null", "land_use": "null", "timezone": "+08:00", "wmo_id": 97096, "station_id": 103 }, "geometry": { "type": "Point", "coordinates": [ 120.65701, -1.42038 ] } },
{ "type": "Feature", "properties": { "fid": 111, "station_number": 97120, "station_name": "Stasiun Meteorologi Majene", "idrefregency": 437, "type": "mkg", "region": "Region IV", "latitude": -3.55074, "longitude": 118.98054, "elevation": 29, "soil": "null", "exposure": "41", "land_use": "28", "timezone": "+08:00", "wmo_id": 97120, "station_id": 104 }, "geometry": { "type": "Point", "coordinates": [ 118.98054, -3.55074 ] } },
{ "type": "Feature", "properties": { "fid": 112, "station_number": 97124, "station_name": "Stasiun Meteorologi Pongtiku", "idrefregency": 408, "type": "mkg", "region": "Region IV", "latitude": -3.04524, "longitude": 119.81885, "elevation": 829, "soil": "null", "exposure": "null", "land_use": "null", "timezone": "+08:00", "wmo_id": 97124, "station_id": 105 }, "geometry": { "type": "Point", "coordinates": [ 119.81885, -3.04524 ] } },
{ "type": "Feature", "properties": { "fid": 113, "station_number": 97126, "station_name": "Stasiun Meteorologi Andi Jemma", "idrefregency": 409, "type": "mkg", "region": "Region IV", "latitude": -2.55472, "longitude": 120.32422, "elevation": 43, "soil": "53.00000", "exposure": "22", "land_use": "21", "timezone": "+08:00", "wmo_id": 97126, "station_id": 106 }, "geometry": { "type": "Point", "coordinates": [ 120.32422, -2.55472 ] } },
{ "type": "Feature", "properties": { "fid": 114, "station_number": 97142, "station_name": "Stasiun Meteorologi Sangia Ni Bandera", "idrefregency": 415, "type": "mkg", "region": "Region IV", "latitude": -4.18059, "longitude": 121.61077, "elevation": 14, "soil": "null", "exposure": "null", "land_use": "null", "timezone": "+08:00", "wmo_id": 97142, "station_id": 107 }, "geometry": { "type": "Point", "coordinates": [ 121.61077, -4.18059 ] } },
{ "type": "Feature", "properties": { "fid": 115, "station_number": 97144, "station_name": "Stasiun Meteorologi Maritim Kendari", "idrefregency": 425, "type": "mkg", "region": "Region IV", "latitude": -3.9701, "longitude": 122.5895, "elevation": 2, "soil": "43.00000", "exposure": "21", "land_use": "23", "timezone": "+08:00", "wmo_id": 97144, "station_id": 108 }, "geometry": { "type": "Point", "coordinates": [ 122.5895, -3.9701 ] } },
{ "type": "Feature", "properties": { "fid": 116, "station_number": 97146, "station_name": "Stasiun Geofisika Kendari", "idrefregency": 425, "type": "mkg", "region": "Region IV", "latitude": -3.96, "longitude": 122.62, "elevation": 10, "soil": "null", "exposure": "null", "land_use": "null", "timezone": "+08:00", "wmo_id": 97146, "station_id": 109 }, "geometry": { "type": "Point", "coordinates": [ 122.62, -3.96 ] } },
{ "type": "Feature", "properties": { "fid": 117, "station_number": 97180, "station_name": "Stasiun Meteorologi Hasanuddin", "idrefregency": 399, "type": "mkg", "region": "Region IV", "latitude": -5.07, "longitude": 119.55, "elevation": 14, "soil": "null", "exposure": "null", "land_use": "null", "timezone": "+08:00", "wmo_id": 97180, "station_id": 110 }, "geometry": { "type": "Point", "coordinates": [ 119.55, -5.07 ] } },
{ "type": "Feature", "properties": { "fid": 118, "station_number": 97182, "station_name": "Stasiun Meteorologi Maritim Paotere", "idrefregency": 412, "type": "mkg", "region": "Region IV", "latitude": -5.11375, "longitude": 119.41983, "elevation": 5, "soil": "null", "exposure": "22", "land_use": "21", "timezone": "+08:00", "wmo_id": 97182, "station_id": 111 }, "geometry": { "type": "Point", "coordinates": [ 119.41983, -5.11375 ] } },
{ "type": "Feature", "properties": { "fid": 119, "station_number": 97184, "station_name": "Stasiun Klimatologi Maros", "idrefregency": 399, "type": "mkg", "region": "Region IV", "latitude": -4.9308, "longitude": 119.572, "elevation": 13, "soil": "null", "exposure": "47", "land_use": "22", "timezone": "+08:00", "wmo_id": 97184, "station_id": 112 }, "geometry": { "type": "Point", "coordinates": [ 119.572, -4.9308 ] } },
{ "type": "Feature", "properties": { "fid": 120, "station_number": 97186, "station_name": "Stasiun Geofisika Gowa", "idrefregency": 396, "type": "mkg", "region": "Region IV", "latitude": -5.218, "longitude": 119.47, "elevation": 22, "soil": "null", "exposure": "null", "land_use": "null", "timezone": "+08:00", "wmo_id": 97186, "station_id": 113 }, "geometry": { "type": "Point", "coordinates": [ 119.47, -5.218 ] } },
{ "type": "Feature", "properties": { "fid": 121, "station_number": 97192, "station_name": "Stasiun Meteorologi Beto Ambari", "idrefregency": 426, "type": "mkg", "region": "Region IV", "latitude": -5.47, "longitude": 122.62, "elevation": 233, "soil": "null", "exposure": "null", "land_use": "null", "timezone": "+08:00", "wmo_id": 97192, "station_id": 114 }, "geometry": { "type": "Point", "coordinates": [ 122.62, -5.47 ] } },
{ "type": "Feature", "properties": { "fid": 122, "station_number": 97230, "station_name": "Stasiun Meteorologi Ngurah Rai ", "idrefregency": 272, "type": "mkg", "region": "Region III", "latitude": -8.75, "longitude": 115.17, "elevation": 4, "soil": "53.00000", "exposure": "22", "land_use": "23", "timezone": "+08:00", "wmo_id": 97230, "station_id": 115 }, "geometry": { "type": "Point", "coordinates": [ 115.17, -8.75 ] } },
{ "type": "Feature", "properties": { "fid": 123, "station_number": 97232, "station_name": "Stasiun Geofisika Sanglah", "idrefregency": 278, "type": "mkg", "region": "Region III", "latitude": -8.67689, "longitude": 115.21, "elevation": 15, "soil": "52.00000", "exposure": "49", "land_use": "21", "timezone": "+08:00", "wmo_id": 97232, "station_id": 116 }, "geometry": { "type": "Point", "coordinates": [ 115.21, -8.67689 ] } },
{ "type": "Feature", "properties": { "fid": 124, "station_number": 97234, "station_name": "Pos Pengamatan Kahang-Kahang", "idrefregency": 276, "type": "mkg", "region": "Region III", "latitude": -8.365, "longitude": 115.61083, "elevation": 155, "soil": "47.00000", "exposure": "22", "land_use": "22", "timezone": "+08:00", "wmo_id": 97234, "station_id": 117 }, "geometry": { "type": "Point", "coordinates": [ 115.61083, -8.365 ] } },
{ "type": "Feature", "properties": { "fid": 125, "station_number": 97236, "station_name": "Stasiun Klimatologi Jembrana", "idrefregency": 270, "type": "mkg", "region": "Region III", "latitude": -8.341, "longitude": 114.6176, "elevation": 25, "soil": "47.00000", "exposure": "2", "land_use": "22", "timezone": "+08:00", "wmo_id": 97236, "station_id": 118 }, "geometry": { "type": "Point", "coordinates": [ 114.6176, -8.341 ] } },
{ "type": "Feature", "properties": { "fid": 126, "station_number": 97240, "station_name": "Stasiun Meteorologi Bandara Internasional Lombok", "idrefregency": 287, "type": "mkg", "region": "Region III", "latitude": -8.75277, "longitude": 116.24982, "elevation": 92, "soil": "47.00000", "exposure": "47", "land_use": "26", "timezone": "+08:00", "wmo_id": 97240, "station_id": 119 }, "geometry": { "type": "Point", "coordinates": [ 116.24982, -8.75277 ] } },
{ "type": "Feature", "properties": { "fid": 127, "station_number": 97242, "station_name": "Stasiun Klimatologi Lombok Barat", "idrefregency": 279, "type": "mkg", "region": "Region III", "latitude": -8.63627, "longitude": 116.17094, "elevation": 55, "soil": "47.00000", "exposure": "42", "land_use": "22", "timezone": "+08:00", "wmo_id": 97242, "station_id": 120 }, "geometry": { "type": "Point", "coordinates": [ 116.17094, -8.63627 ] } },
{ "type": "Feature", "properties": { "fid": 128, "station_number": 97260, "station_name": "Stasiun Meteorologi Sultan Muhammad Kaharudin", "idrefregency": 282, "type": "mkg", "region": "Region III", "latitude": -8.48845, "longitude": 117.41336, "elevation": 10, "soil": "null", "exposure": "null", "land_use": "23", "timezone": "+08:00", "wmo_id": 97260, "station_id": 121 }, "geometry": { "type": "Point", "coordinates": [ 117.41336, -8.48845 ] } },
{ "type": "Feature", "properties": { "fid": 129, "station_number": 97270, "station_name": "Stasiun Meteorologi Sultan Muhammad Salahudin", "idrefregency": 288, "type": "mkg", "region": "Region III", "latitude": -8.54279, "longitude": 118.6928, "elevation": 5, "soil": "44.00000", "exposure": "2", "land_use": "26", "timezone": "+08:00", "wmo_id": 97270, "station_id": 122 }, "geometry": { "type": "Point", "coordinates": [ 118.6928, -8.54279 ] } },
{ "type": "Feature", "properties": { "fid": 130, "station_number": 97282, "station_name": "Stasiun Meteorologi Komodo", "idrefregency": 303, "type": "mkg", "region": "Region III", "latitude": -8.48673, "longitude": 119.88683, "elevation": 67, "soil": "52.00000", "exposure": "22", "land_use": "26", "timezone": "+08:00", "wmo_id": 97282, "station_id": 123 }, "geometry": { "type": "Point", "coordinates": [ 119.88683, -8.48673 ] } },
{ "type": "Feature", "properties": { "fid": 131, "station_number": 97284, "station_name": "Stasiun Meteorologi Frans Sales Lega", "idrefregency": 298, "type": "mkg", "region": "Region III", "latitude": -8.63, "longitude": 120.45, "elevation": 1070, "soil": "null", "exposure": "22", "land_use": "null", "timezone": "+08:00", "wmo_id": 97284, "station_id": 124 }, "geometry": { "type": "Point", "coordinates": [ 120.45, -8.63 ] } },
{ "type": "Feature", "properties": { "fid": 132, "station_number": 97300, "station_name": "Stasiun Meteorologi Fransiskus Xaverius Seda", "idrefregency": 295, "type": "mkg", "region": "Region III", "latitude": -8.63577, "longitude": 122.23752, "elevation": 28, "soil": "null", "exposure": "null", "land_use": "null", "timezone": "+08:00", "wmo_id": 97300, "station_id": 125 }, "geometry": { "type": "Point", "coordinates": [ 122.23752, -8.63577 ] } },
{ "type": "Feature", "properties": { "fid": 133, "station_number": 97310, "station_name": "Stasiun Meteorologi Gewayantana", "idrefregency": 294, "type": "mkg", "region": "Region III", "latitude": -8.2752, "longitude": 122.9986, "elevation": 9, "soil": "null", "exposure": "49", "land_use": "21", "timezone": "+08:00", "wmo_id": 97310, "station_id": 126 }, "geometry": { "type": "Point", "coordinates": [ 122.9986, -8.2752 ] } },
{ "type": "Feature", "properties": { "fid": 134, "station_number": 97320, "station_name": "Stasiun Meteorologi Mali", "idrefregency": 293, "type": "mkg", "region": "Region III", "latitude": -8.13471, "longitude": 124.59, "elevation": 10, "soil": "53.00000", "exposure": "45", "land_use": "26", "timezone": "+08:00", "wmo_id": 97320, "station_id": 127 }, "geometry": { "type": "Point", "coordinates": [ 124.59, -8.13471 ] } },
{ "type": "Feature", "properties": { "fid": 135, "station_number": 97340, "station_name": "Stasiun Meteorologi Umbu Mehang Kunda", "idrefregency": 299, "type": "mkg", "region": "Region III", "latitude": -9.66944, "longitude": 120.29972, "elevation": 10, "soil": "51.00000", "exposure": "43", "land_use": "21", "timezone": "+08:00", "wmo_id": 97340, "station_id": 128 }, "geometry": { "type": "Point", "coordinates": [ 120.29972, -9.66944 ] } },
{ "type": "Feature", "properties": { "fid": 136, "station_number": 97342, "station_name": "Stasiun Geofisika Waingapu", "idrefregency": 299, "type": "mkg", "region": "Region III", "latitude": -9.66917, "longitude": 120.29776, "elevation": 13, "soil": "null", "exposure": "null", "land_use": "null", "timezone": "+08:00", "wmo_id": 97342, "station_id": 129 }, "geometry": { "type": "Point", "coordinates": [ 120.29776, -9.66917 ] } },
{ "type": "Feature", "properties": { "fid": 137, "station_number": 97374, "station_name": "Stasiun Klimatologi Kupang", "idrefregency": 309, "type": "mkg", "region": "Region III", "latitude": -10.13861, "longitude": 123.66722, "elevation": 19, "soil": "46.00000", "exposure": "2", "land_use": "26", "timezone": "+08:00", "wmo_id": 97374, "station_id": 130 }, "geometry": { "type": "Point", "coordinates": [ 123.66722, -10.13861 ] } },
{ "type": "Feature", "properties": { "fid": 138, "station_number": 97372, "station_name": "Stasiun Meteorologi Eltari", "idrefregency": 309, "type": "mkg", "region": "Region III", "latitude": -10.1678, "longitude": 123.67039, "elevation": 102, "soil": "null", "exposure": "null", "land_use": "null", "timezone": "null", "wmo_id": 97372, "station_id": 131 }, "geometry": { "type": "Point", "coordinates": [ 123.67039, -10.1678 ] } },
{ "type": "Feature", "properties": { "fid": 139, "station_number": 97376, "station_name": "Stasiun Geofisika Kampung Baru", "idrefregency": 309, "type": "mkg", "region": "Region III", "latitude": -10.16453, "longitude": 123.58933, "elevation": 56, "soil": "null", "exposure": "null", "land_use": "null", "timezone": "+08:00", "wmo_id": 97376, "station_id": 132 }, "geometry": { "type": "Point", "coordinates": [ 123.58933, -10.16453 ] } },
{ "type": "Feature", "properties": { "fid": 140, "station_number": 97378, "station_name": "Stasiun Meteorologi David Constatijn Saudale", "idrefregency": 302, "type": "mkg", "region": "Region III", "latitude": -10.76662, "longitude": 123.07395, "elevation": 141, "soil": "47.00000", "exposure": "45", "land_use": "26", "timezone": "+08:00", "wmo_id": 97378, "station_id": 133 }, "geometry": { "type": "Point", "coordinates": [ 123.07395, -10.76662 ] } },
{ "type": "Feature", "properties": { "fid": 141, "station_number": 97380, "station_name": "Stasiun Meteorologi Tardamu", "idrefregency": 289, "type": "mkg", "region": "Region III", "latitude": -10.5, "longitude": 121.83, "elevation": 15, "soil": "53.00000", "exposure": "42", "land_use": "26", "timezone": "+08:00", "wmo_id": 97380, "station_id": 134 }, "geometry": { "type": "Point", "coordinates": [ 121.83, -10.5 ] } },
{ "type": "Feature", "properties": { "fid": 142, "station_number": 97406, "station_name": "Stasiun Meteorologi Gamar Malamo", "idrefregency": 451, "type": "mkg", "region": "Region IV", "latitude": 1.84092, "longitude": 127.7905, "elevation": 130, "soil": "53.00000", "exposure": "22", "land_use": "23", "timezone": "+09:00", "wmo_id": 97406, "station_id": 135 }, "geometry": { "type": "Point", "coordinates": [ 127.7905, 1.84092 ] } },
{ "type": "Feature", "properties": { "fid": 143, "station_number": 97430, "station_name": "Stasiun Meteorologi Sultan Baabullah", "idrefregency": 456, "type": "mkg", "region": "Region IV", "latitude": 0.8333, "longitude": 127.38, "elevation": 33, "soil": "53.00000", "exposure": "22", "land_use": "21", "timezone": "+09:00", "wmo_id": 97430, "station_id": 136 }, "geometry": { "type": "Point", "coordinates": [ 127.38, 0.8333 ] } },
{ "type": "Feature", "properties": { "fid": 144, "station_number": 97432, "station_name": "Stasiun Geofisika Ternate", "idrefregency": 456, "type": "mkg", "region": "Region IV", "latitude": 0.7719, "longitude": 127.3667, "elevation": 49, "soil": "null", "exposure": "null", "land_use": "null", "timezone": "+09:00", "wmo_id": 97432, "station_id": 137 }, "geometry": { "type": "Point", "coordinates": [ 127.3667, 0.7719 ] } },
{ "type": "Feature", "properties": { "fid": 145, "station_number": 97460, "station_name": "Stasiun Meteorologi Oesman Sadik", "idrefregency": 452, "type": "mkg", "region": "Region IV", "latitude": -0.63784, "longitude": 127.5, "elevation": 14, "soil": "53.00000", "exposure": "22", "land_use": "21", "timezone": "+09:00", "wmo_id": 97460, "station_id": 138 }, "geometry": { "type": "Point", "coordinates": [ 127.5, -0.63784 ] } },
{ "type": "Feature", "properties": { "fid": 146, "station_number": 97502, "station_name": "Stasiun Meteorologi Seigun", "idrefregency": 497, "type": "mkg", "region": "Region V", "latitude": -0.89118, "longitude": 131.28575, "elevation": 0, "soil": "41.00000", "exposure": "22", "land_use": "27", "timezone": "+09:00", "wmo_id": 97502, "station_id": 139 }, "geometry": { "type": "Point", "coordinates": [ 131.28575, -0.89118 ] } },
{ "type": "Feature", "properties": { "fid": 147, "station_number": 97530, "station_name": "Stasiun Meteorologi Rendani", "idrefregency": 488, "type": "mkg", "region": "Region V", "latitude": -0.89227, "longitude": 134.05041, "elevation": 3, "soil": "42.00000", "exposure": "44", "land_use": "26", "timezone": "+09:00", "wmo_id": 97530, "station_id": 140 }, "geometry": { "type": "Point", "coordinates": [ 134.05041, -0.89227 ] } },
{ "type": "Feature", "properties": { "fid": 148, "station_number": 97560, "station_name": "Stasiun Meteorologi Frans Kaisiepo", "idrefregency": 463, "type": "mkg", "region": "Region V", "latitude": -1.19069, "longitude": 136.10361, "elevation": 3, "soil": "null", "exposure": "21", "land_use": "26", "timezone": "+09:00", "wmo_id": 97560, "station_id": 141 }, "geometry": { "type": "Point", "coordinates": [ 136.10361, -1.19069 ] } },
{ "type": "Feature", "properties": { "fid": 149, "station_number": 97570, "station_name": "Stasiun Meteorologi Sudjarwo Tjondro Negoro", "idrefregency": 462, "type": "mkg", "region": "Region V", "latitude": -1.8754, "longitude": 136.23994, "elevation": 3, "soil": "null", "exposure": "null", "land_use": "28", "timezone": "+09:00", "wmo_id": 97570, "station_id": 142 }, "geometry": { "type": "Point", "coordinates": [ 136.23994, -1.8754 ] } },
{ "type": "Feature", "properties": { "fid": 150, "station_number": 97580, "station_name": "Stasiun Meteorologi Mararena", "idrefregency": 467, "type": "mkg", "region": "Region V", "latitude": -1.85, "longitude": 138.75, "elevation": 3, "soil": "null", "exposure": "null", "land_use": "null", "timezone": "+09:00", "wmo_id": 97580, "station_id": 143 }, "geometry": { "type": "Point", "coordinates": [ 138.75, -1.85 ] } },
{ "type": "Feature", "properties": { "fid": 151, "station_number": 97600, "station_name": "Stasiun Meteorologi Emalamo", "idrefregency": 453, "type": "mkg", "region": "Region IV", "latitude": -2.05, "longitude": 126.0, "elevation": 2, "soil": "44.00000", "exposure": "45", "land_use": "21", "timezone": "+09:00", "wmo_id": 97600, "station_id": 144 }, "geometry": { "type": "Point", "coordinates": [ 126.0, -2.05 ] } },
{ "type": "Feature", "properties": { "fid": 152, "station_number": 97630, "station_name": "Stasiun Meteorologi Torea", "idrefregency": 489, "type": "mkg", "region": "Region V", "latitude": -2.91938, "longitude": 132.26496, "elevation": 126, "soil": "51.00000", "exposure": "null", "land_use": "28", "timezone": "+09:00", "wmo_id": 97630, "station_id": 145 }, "geometry": { "type": "Point", "coordinates": [ 132.26496, -2.91938 ] } },
{ "type": "Feature", "properties": { "fid": 153, "station_number": 97682, "station_name": "Stasiun Meteorologi Moanamani", "idrefregency": 461, "type": "mkg", "region": "Region V", "latitude": -3.3521, "longitude": 135.52, "elevation": 3, "soil": "52.00000", "exposure": "null", "land_use": "21", "timezone": "+09:00", "wmo_id": 97682, "station_id": 146 }, "geometry": { "type": "Point", "coordinates": [ 135.52, -3.3521 ] } },
{ "type": "Feature", "properties": { "fid": 154, "station_number": 97686, "station_name": "Stasiun Meteorologi Wamena Jaya Wijaya", "idrefregency": 459, "type": "mkg", "region": "Region V", "latitude": -4.07, "longitude": 138.95, "elevation": 1653, "soil": "null", "exposure": "48", "land_use": "25", "timezone": "+09:00", "wmo_id": 97686, "station_id": 147 }, "geometry": { "type": "Point", "coordinates": [ 138.95, -4.07 ] } },
{ "type": "Feature", "properties": { "fid": 155, "station_number": 97690, "station_name": "Stasiun Meteorologi Sentani", "idrefregency": 460, "type": "mkg", "region": "Region V", "latitude": -2.57, "longitude": 140.48, "elevation": 96, "soil": "43.00000", "exposure": "22", "land_use": "26", "timezone": "+09:00", "wmo_id": 97690, "station_id": 148 }, "geometry": { "type": "Point", "coordinates": [ 140.48, -2.57 ] } },
{ "type": "Feature", "properties": { "fid": 156, "station_number": 97694, "station_name": "Stasiun Klimatologi Manokwari Selatan", "idrefregency": 488, "type": "mkg", "region": "Region V", "latitude": -1.47, "longitude": 134.19, "elevation": 20, "soil": "42.00000", "exposure": "22", "land_use": "26", "timezone": "+09:00", "wmo_id": 97694, "station_id": 149 }, "geometry": { "type": "Point", "coordinates": [ 134.19, -1.47 ] } },
{ "type": "Feature", "properties": { "fid": 157, "station_number": 97696, "station_name": "Stasiun Geofisika Angkasapura", "idrefregency": 486, "type": "mkg", "region": "Region V", "latitude": -2.51461, "longitude": 140.70431, "elevation": 400, "soil": "61.00000", "exposure": "22", "land_use": "21", "timezone": "+09:00", "wmo_id": 97696, "station_id": 150 }, "geometry": { "type": "Point", "coordinates": [ 140.70431, -2.51461 ] } },
{ "type": "Feature", "properties": { "fid": 158, "station_number": 97698, "station_name": "Stasiun Meteorologi Dok II Jayapura", "idrefregency": 486, "type": "mkg", "region": "Region V", "latitude": -2.53, "longitude": 140.72, "elevation": 3, "soil": "null", "exposure": "22", "land_use": "28", "timezone": "+09:00", "wmo_id": 97698, "station_id": 151 }, "geometry": { "type": "Point", "coordinates": [ 140.72, -2.53 ] } },
{ "type": "Feature", "properties": { "fid": 159, "station_number": 97700, "station_name": "Stasiun Meteorologi Namlea", "idrefregency": 441, "type": "mkg", "region": "Region IV", "latitude": -3.25, "longitude": 127.08, "elevation": 10, "soil": "52.00000", "exposure": "22", "land_use": "26", "timezone": "+09:00", "wmo_id": 97700, "station_id": 152 }, "geometry": { "type": "Point", "coordinates": [ 127.08, -3.25 ] } },
{ "type": "Feature", "properties": { "fid": 160, "station_number": 97722, "station_name": "Stasiun Meteorologi Amahai", "idrefregency": 438, "type": "mkg", "region": "Region IV", "latitude": -3.3464, "longitude": 128.9284, "elevation": 10, "soil": "null", "exposure": "43", "land_use": "21", "timezone": "+09:00", "wmo_id": 97722, "station_id": 153 }, "geometry": { "type": "Point", "coordinates": [ 128.9284, -3.3464 ] } },
{ "type": "Feature", "properties": { "fid": 161, "station_number": 97724, "station_name": "Stasiun Meteorologi Pattimura", "idrefregency": 447, "type": "mkg", "region": "Region IV", "latitude": -3.7114, "longitude": 128.0957, "elevation": 14, "soil": "null", "exposure": "null", "land_use": "null", "timezone": "+09:00", "wmo_id": 97724, "station_id": 154 }, "geometry": { "type": "Point", "coordinates": [ 128.0957, -3.7114 ] } },
{ "type": "Feature", "properties": { "fid": 162, "station_number": 97726, "station_name": "Stasiun Klimatologi Seram Bagian Barat", "idrefregency": 443, "type": "mkg", "region": "Region IV", "latitude": -3.25, "longitude": 128.4, "elevation": 5, "soil": "null", "exposure": "22", "land_use": "22", "timezone": "+09:00", "wmo_id": 97726, "station_id": 155 }, "geometry": { "type": "Point", "coordinates": [ 128.4, -3.25 ] } },
{ "type": "Feature", "properties": { "fid": 163, "station_number": 97728, "station_name": "Stasiun Geofisika Karang Panjang", "idrefregency": 447, "type": "mkg", "region": "Region IV", "latitude": -3.69, "longitude": 128.19, "elevation": 83, "soil": "null", "exposure": "null", "land_use": "21", "timezone": "+09:00", "wmo_id": 97728, "station_id": 156 }, "geometry": { "type": "Point", "coordinates": [ 128.19, -3.69 ] } },
{ "type": "Feature", "properties": { "fid": 164, "station_number": 97748, "station_name": "Stasiun Meteorologi Geser", "idrefregency": 442, "type": "mkg", "region": "Region IV", "latitude": -3.8813, "longitude": 130.88, "elevation": 2, "soil": "null", "exposure": "null", "land_use": "null", "timezone": "null", "wmo_id": 97748, "station_id": 157 }, "geometry": { "type": "Point", "coordinates": [ 130.88, -3.8813 ] } },
{ "type": "Feature", "properties": { "fid": 165, "station_number": 97780, "station_name": "Stasiun Meteorologi Enarotali", "idrefregency": 465, "type": "mkg", "region": "Region V", "latitude": -3.92688, "longitude": 136.38, "elevation": 1650, "soil": "null", "exposure": "null", "land_use": "null", "timezone": "+09:00", "wmo_id": 97780, "station_id": 158 }, "geometry": { "type": "Point", "coordinates": [ 136.38, -3.92688 ] } },
{ "type": "Feature", "properties": { "fid": 166, "station_number": 97790, "station_name": "Stasiun Meteorologi Bandaneira", "idrefregency": 438, "type": "mkg", "region": "Region IV", "latitude": -4.52338, "longitude": 129.9043, "elevation": 15, "soil": "null", "exposure": "2", "land_use": "25", "timezone": "+09:00", "wmo_id": 97790, "station_id": 159 }, "geometry": { "type": "Point", "coordinates": [ 129.9043, -4.52338 ] } },
{ "type": "Feature", "properties": { "fid": 167, "station_number": 97796, "station_name": "Stasiun Meteorologi Mozez Kilangin", "idrefregency": 466, "type": "mkg", "region": "Region V", "latitude": -4.53006, "longitude": 136.89348, "elevation": 30, "soil": "52.00000", "exposure": "22", "land_use": "26", "timezone": "+09:00", "wmo_id": 97796, "station_id": 160 }, "geometry": { "type": "Point", "coordinates": [ 136.89348, -4.53006 ] } },
{ "type": "Feature", "properties": { "fid": 168, "station_number": 97810, "station_name": "Stasiun Meteorologi Dumatubun Tual", "idrefregency": 439, "type": "mkg", "region": "Region IV", "latitude": -5.6637, "longitude": 132.7362, "elevation": 10, "soil": "null", "exposure": "22", "land_use": "21", "timezone": "+09:00", "wmo_id": 97810, "station_id": 161 }, "geometry": { "type": "Point", "coordinates": [ 132.7362, -5.6637 ] } },
{ "type": "Feature", "properties": { "fid": 169, "station_number": 97812, "station_name": "Stasiun Geofisika Nabire", "idrefregency": 461, "type": "mkg", "region": "Region V", "latitude": -5.64, "longitude": 132.75, "elevation": 22, "soil": "null", "exposure": "null", "land_use": "null", "timezone": "+09:00", "wmo_id": 97812, "station_id": 162 }, "geometry": { "type": "Point", "coordinates": [ 132.75, -5.64 ] } },
{ "type": "Feature", "properties": { "fid": 170, "station_number": 97876, "station_name": "Stasiun Meteorologi Tanah Merah", "idrefregency": 473, "type": "mkg", "region": "Region V", "latitude": -6.1, "longitude": 140.31, "elevation": 97, "soil": "53.00000", "exposure": "43", "land_use": "26", "timezone": "+09:00", "wmo_id": 97876, "station_id": 163 }, "geometry": { "type": "Point", "coordinates": [ 140.31, -6.1 ] } },
{ "type": "Feature", "properties": { "fid": 171, "station_number": 97900, "station_name": "Stasiun Meteorologi Mathilda Batlayeri", "idrefregency": 440, "type": "mkg", "region": "Region IV", "latitude": -7.98, "longitude": 131.3, "elevation": 24, "soil": "51.00000", "exposure": "22", "land_use": "21", "timezone": "+09:00", "wmo_id": 97900, "station_id": 164 }, "geometry": { "type": "Point", "coordinates": [ 131.3, -7.98 ] } },
{ "type": "Feature", "properties": { "fid": 172, "station_number": 97902, "station_name": "Stasiun Geofisika Saumlaki", "idrefregency": 440, "type": "mkg", "region": "Region IV", "latitude": -7.98, "longitude": 131.3, "elevation": 26, "soil": "51.00000", "exposure": "2", "land_use": "21", "timezone": "+09:00", "wmo_id": 97902, "station_id": 165 }, "geometry": { "type": "Point", "coordinates": [ 131.3, -7.98 ] } },
{ "type": "Feature", "properties": { "fid": 173, "station_number": 97980, "station_name": "Stasiun Meteorologi Mopah", "idrefregency": 458, "type": "mkg", "region": "Region V", "latitude": -8.52019, "longitude": 140.41568, "elevation": 0, "soil": "null", "exposure": "null", "land_use": "null", "timezone": "+09:00", "wmo_id": 97980, "station_id": 166 }, "geometry": { "type": "Point", "coordinates": [ 140.41568, -8.52019 ] } },
{ "type": "Feature", "properties": { "fid": 174, "station_number": 97010, "station_name": "Stasiun Geofisika Winangun", "idrefregency": 376, "type": "mkg", "region": "Region IV", "latitude": 1.4434, "longitude": 124.8389, "elevation": 204, "soil": "null", "exposure": "null", "land_use": "null", "timezone": "+08:00", "wmo_id": 97010, "station_id": 167 }, "geometry": { "type": "Point", "coordinates": [ 124.8389, 1.4434 ] } },
{ "type": "Feature", "properties": { "fid": 175, "station_number": 97978, "station_name": "Stasiun Klimatologi Tanah Miring", "idrefregency": 458, "type": "mkg", "region": "Region V", "latitude": -8.387, "longitude": 140.517, "elevation": 5, "soil": "null", "exposure": "null", "land_use": "null", "timezone": "+09:00", "wmo_id": 97978, "station_id": 7945 }, "geometry": { "type": "Point", "coordinates": [ 140.517, -8.387 ] } },
{ "type": "Feature", "properties": { "fid": 176, "station_number": 97094, "station_name": "Stasiun Pemantau Atmosfer Global Lore Lindu Bariri", "idrefregency": 390, "type": "mkg", "region": "Region IV", "latitude": -1.6499, "longitude": 120.183, "elevation": 1369, "soil": "52.00000", "exposure": "22", "land_use": "26", "timezone": "+08:00", "wmo_id": 97094, "station_id": 7947 }, "geometry": { "type": "Point", "coordinates": [ 120.183, -1.6499 ] } },
{ "type": "Feature", "properties": { "fid": 177, "station_number": 97500, "station_name": "Stasiun Pemantau Atmosfer Global Puncak Vihara Klademak", "idrefregency": 497, "type": "mkg", "region": "Region V", "latitude": -0.981, "longitude": 131.301, "elevation": 10, "soil": "null", "exposure": "null", "land_use": "null", "timezone": "+09:00", "wmo_id": 97500, "station_id": 7948 }, "geometry": { "type": "Point", "coordinates": [ 131.301, -0.981 ] } },
{ "type": "Feature", "properties": { "fid": 178, "station_number": 97150, "station_name": "Stasiun Klimatologi Ranomeeto", "idrefregency": 419, "type": "mkg", "region": "Region IV", "latitude": -4.056, "longitude": 122.449, "elevation": 30, "soil": "43.00000", "exposure": "21", "land_use": "21", "timezone": "+08:00", "wmo_id": 97150, "station_id": 7905 }, "geometry": { "type": "Point", "coordinates": [ 122.449, -4.056 ] } },
{ "type": "Feature", "properties": { "fid": 179, "station_number": 97052, "station_name": "Stasiun Klimatologi Tilongkabila", "idrefregency": 429, "type": "mkg", "region": "Region IV", "latitude": 0.556, "longitude": 123.14, "elevation": 15, "soil": "null", "exposure": "null", "land_use": "null", "timezone": "+08:00", "wmo_id": 97052, "station_id": 7924 }, "geometry": { "type": "Point", "coordinates": [ 123.14, 0.556 ] } },
{ "type": "Feature", "properties": { "fid": 180, "station_number": 96939, "station_name": "Stasiun Meteorologi Tuban", "idrefregency": 246, "type": "mkg", "region": "Region III", "latitude": -6.8229, "longitude": 111.99177, "elevation": 5, "soil": "null", "exposure": "null", "land_use": "null", "timezone": "+07:00", "wmo_id": 96939, "station_id": 7949 }, "geometry": { "type": "Point", "coordinates": [ 111.99177, -6.8229 ] } },
{ "type": "Feature", "properties": { "fid": 181, "station_number": 96107, "station_name": "Stasiun Klimatologi Tambang", "idrefregency": 76, "type": "mkg", "region": "Region I", "latitude": 0.407, "longitude": 101.217, "elevation": 15, "soil": "null", "exposure": "null", "land_use": "null", "timezone": "+07:00", "wmo_id": 96107, "station_id": 7904 }, "geometry": { "type": "Point", "coordinates": [ 101.217, 0.407 ] } },
{ "type": "Feature", "properties": { "fid": 182, "station_number": 96851, "station_name": "Stasiun Klimatologi Mlati", "idrefregency": 222, "type": "mkg", "region": "Region II", "latitude": -7.731, "longitude": 110.354, "elevation": 182, "soil": "null", "exposure": "null", "land_use": "null", "timezone": "+07:00", "wmo_id": 96851, "station_id": 7944 }, "geometry": { "type": "Point", "coordinates": [ 110.354, -7.731 ] } },
{ "type": "Feature", "properties": { "fid": 183, "station_number": 96239, "station_name": "Stasiun Klimatologi Koba", "idrefregency": 141, "type": "mkg", "region": "Region II", "latitude": -2.518, "longitude": 106.422, "elevation": 6, "soil": "null", "exposure": "null", "land_use": "null", "timezone": "+07:00", "wmo_id": 96239, "station_id": 7946 }, "geometry": { "type": "Point", "coordinates": [ 106.422, -2.518 ] } },
{ "type": "Feature", "properties": { "fid": 184, "station_number": 96747, "station_name": "Halim Perdana Kusuma Jakarta", "idrefregency": 157, "type": "mkg", "region": "Region II", "latitude": -6.27036, "longitude": 106.88926, "elevation": 28, "soil": "null", "exposure": "null", "land_use": "null", "timezone": "+07:00", "wmo_id": 96747, "station_id": 10890 }, "geometry": { "type": "Point", "coordinates": [ 106.88926, -6.27036 ] } },
{ "type": "Feature", "properties": { "fid": 185, "station_number": 97247, "station_name": "Stasiun Geofisika Alor", "idrefregency": 293, "type": "mkg", "region": "Region III", "latitude": -8.1445, "longitude": 124.5903, "elevation": 0, "soil": "null", "exposure": "null", "land_use": "null", "timezone": "+08:00", "wmo_id": 97247, "station_id": 11185 }, "geometry": { "type": "Point", "coordinates": [ 124.5903, -8.1445 ] } },
{ "type": "Feature", "properties": { "fid": 186, "station_number": 97000, "station_name": "Balai Besar Meteorologi, Klimatologi, dan Geofisika Wilayah V", "idrefregency": 486, "type": "mkg", "region": "Region V", "latitude": -2.57522, "longitude": 140.68624, "elevation": 0, "soil": "null", "exposure": "null", "land_use": "null", "timezone": "+09:00", "wmo_id": 97000, "station_id": 172 }, "geometry": { "type": "Point", "coordinates": [ 140.68624, -2.57522 ] } },
{ "type": "Feature", "properties": { "fid": 187, "station_number": 96003, "station_name": "Balai Besar Meteorologi, Klimatologi ,  dan Geofisika Wilayah III", "idrefregency": 272, "type": "mkg", "region": "Region III", "latitude": -8.7381, "longitude": 115.1786, "elevation": 0, "soil": "null", "exposure": "null", "land_use": "null", "timezone": "null", "wmo_id": 96003, "station_id": 170 }, "geometry": { "type": "Point", "coordinates": [ 115.1786, -8.7381 ] } },
{ "type": "Feature", "properties": { "fid": 188, "station_number": 96041, "station_name": "Balai Besar Meteorologi, Klimatologi, dan Geofisika Wilayah I", "idrefregency": 49, "type": "mkg", "region": "Region I", "latitude": 3.5397, "longitude": 98.64, "elevation": 0, "soil": "null", "exposure": "null", "land_use": "null", "timezone": "+07:00", "wmo_id": 96041, "station_id": 168 }, "geometry": { "type": "Point", "coordinates": [ 98.64, 3.5397 ] } },
{ "type": "Feature", "properties": { "fid": 189, "station_number": 96004, "station_name": "Balai Besar Meteorologi, Klimatologi, dan Geofisika Wilayah IV", "idrefregency": 412, "type": "mkg", "region": "Region IV", "latitude": -5.14283, "longitude": 119.45227, "elevation": 72, "soil": "null", "exposure": "null", "land_use": "null", "timezone": "+08:00", "wmo_id": 96004, "station_id": 171 }, "geometry": { "type": "Point", "coordinates": [ 119.45227, -5.14283 ] } },
{ "type": "Feature", "properties": { "fid": 190, "station_number": 96043, "station_name": "Stasiun Meteorologi Silangit", "idrefregency": 25, "type": "mkg", "region": "Region I", "latitude": 2.26136, "longitude": 98.99357, "elevation": 1420, "soil": "null", "exposure": "null", "land_use": "null", "timezone": "+07:00", "wmo_id": 96043, "station_id": 11261 }, "geometry": { "type": "Point", "coordinates": [ 98.99357, 2.26136 ] } },
{ "type": "Feature", "properties": { "fid": 191, "station_number": 97730, "station_name": "Stasiun Meteorologi Maritim Ambon", "idrefregency": 447, "type": "mkg", "region": "Region IV", "latitude": -3.79053, "longitude": 128.10075, "elevation": 3, "soil": "null", "exposure": "null", "land_use": "null", "timezone": "null", "wmo_id": 97730, "station_id": 11262 }, "geometry": { "type": "Point", "coordinates": [ 128.10075, -3.79053 ] } }
]
}
